[
  {
    "name": "Unity Blood Services",
    "address": "Main Road, Agartala",
    "phone": "531-3624228",
    "blood_required": [
      "A+",
      "B+",
      "AB-"
    ],
    "latitude": 23.1387,
    "longitude": 91.8716,
    "is_blood_camp": false,
    "organized_by": "City Hospital",
    "hours_active": "9:00 AM - 6:00 PM",
    "start_date": "2025-07-25",
    "end_date": "2025-07-25",
    "city": "Agartala",
    "state": "Tripura",
    "id": "2161addea5cbd58f404743945a68080a89fafcef"
  },
  {
    "name": "Vital Blood Bank",
    "address": "Main Road, Agartala",
    "phone": "274-7953203",
    "blood_required": [
      "B-",
      "O-"
    ],
    "latitude": 23.6091,
    "longitude": 82.4317,
    "is_blood_camp": false,
    "organized_by": "City Hospital",
    "hours_active": "11:00 AM - 5:00 PM",
    "start_date": "2025-07-26",
    "end_date": "2025-07-26",
    "city": "Agartala",
    "state": "Tripura",
    "id": "b9491c47bf945de065a186747ee650e1d49738ca"
  },
  {
    "name": "Red Cross Blood Services",
    "address": "Main Road, Agartala",
    "phone": "310-9115424",
    "blood_required": [
      "B+",
      "O-",
      "O+"
    ],
    "latitude": 30.2058,
    "longitude": 90.8941,
    "is_blood_camp": false,
    "organized_by": "LifeCare Trust",
    "hours_active": "8:00 AM - 2:00 PM",
    "start_date": "2025-07-26",
    "end_date": "2025-07-26",
    "city": "Agartala",
    "state": "Tripura",
    "id": "aea0a668f303a9baaa7f7f85d9423b430a20cc2d"
  },
  {
    "name": "Vital Blood Services",
    "address": "Main Road, Agartala",
    "phone": "699-4116330",
    "blood_required": [
      "O+",
      "AB+",
      "O-",
      "B-"
    ],
    "latitude": 9.4585,
    "longitude": 70.325,
    "is_blood_camp": false,
    "organized_by": "LifeCare Trust",
    "hours_active": "9:00 AM - 6:00 PM",
    "start_date": "2025-07-27",
    "end_date": "2025-07-27",
    "city": "Agartala",
    "state": "Tripura",
    "id": "5ec287baa28626afc0e1b0a25d3d060d7f5f9e4a"
  },
  {
    "name": "Hope Blood Bank",
    "address": "Main Road, Agartala",
    "phone": "882-1411082",
    "blood_required": [
      "AB+",
      "A+"
    ],
    "latitude": 34.4473,
    "longitude": 90.1918,
    "is_blood_camp": false,
    "organized_by": "City Hospital",
    "hours_active": "11:00 AM - 4:00 PM",
    "start_date": "2025-07-27",
    "end_date": "2025-07-27",
    "city": "Agartala",
    "state": "Tripura",
    "id": "17ec1e203399fb587b54b4b6a00217c8b96e25cd"
  },
  {
    "name": "Shreeji Blood Bank",
    "address": "Main Road, Agartala",
    "phone": "891-3453636",
    "blood_required": [
      "B+",
      "O-",
      "AB-",
      "A+"
    ],
    "latitude": 18.5756,
    "longitude": 80.1035,
    "is_blood_camp": true,
    "organized_by": "City Hospital",
    "hours_active": "9:00 AM - 6:00 PM",
    "start_date": "2025-07-28",
    "end_date": "2025-07-28",
    "city": "Agartala",
    "state": "Tripura",
    "id": "f9d3f61fdbca9f0bab471bf0216d4c2805168bce"
  },
  {
    "name": "LifeCare Blood Foundation",
    "address": "Main Road, Agartala",
    "phone": "934-9953615",
    "blood_required": [
      "AB-",
      "B+",
      "A+",
      "O-"
    ],
    "latitude": 10.5199,
    "longitude": 76.7201,
    "is_blood_camp": true,
    "organized_by": "City Hospital",
    "hours_active": "10:00 AM - 6:00 PM",
    "start_date": "2025-07-28",
    "end_date": "2025-07-28",
    "city": "Agartala",
    "state": "Tripura",
    "id": "6c70c7ceadd18e8e4c86319124c848508b07fb83"
  },
  {
    "name": "City Blood Foundation",
    "address": "Main Road, Agartala",
    "phone": "936-1126245",
    "blood_required": [
      "A-",
      "AB+",
      "B-",
      "O-"
    ],
    "latitude": 33.0229,
    "longitude": 96.8755,
    "is_blood_camp": false,
    "organized_by": "LifeCare Trust",
    "hours_active": "9:00 AM - 6:00 PM",
    "start_date": "2025-07-28",
    "end_date": "2025-07-28",
    "city": "Agartala",
    "state": "Tripura",
    "id": "d3c440886ea0e7eff639a3c277abbba618d9a71f"
  },
  {
    "name": "Sanjeevani Blood Bank",
    "address": "Main Road, Agartala",
    "phone": "566-3244363",
    "blood_required": [
      "A-",
      "AB-",
      "B-"
    ],
    "latitude": 17.8627,
    "longitude": 87.1411,
    "is_blood_camp": true,
    "organized_by": "LifeCare Trust",
    "hours_active": "11:00 AM - 2:00 PM",
    "start_date": "2025-07-28",
    "end_date": "2025-07-28",
    "city": "Agartala",
    "state": "Tripura",
    "id": "eccf9356f70729a6df6215e4d11800850788727a"
  },
  {
    "name": "LifeCare Blood Services",
    "address": "Main Road, Agartala",
    "phone": "262-9090336",
    "blood_required": [
      "AB+",
      "A-",
      "A+",
      "B-"
    ],
    "latitude": 20.597,
    "longitude": 87.3787,
    "is_blood_camp": false,
    "organized_by": "Indian Red Cross Society",
    "hours_active": "11:00 AM - 2:00 PM",
    "start_date": "2025-07-30",
    "end_date": "2025-07-30",
    "city": "Agartala",
    "state": "Tripura",
    "id": "fd0dcab3b3bd87ab263f6b2cee72e9a1e85516e8"
  },
  {
    "name": "City Blood Bank",
    "address": "Main Road, Agartala",
    "phone": "829-9081246",
    "blood_required": [
      "AB-",
      "A-"
    ],
    "latitude": 20.9924,
    "longitude": 73.3864,
    "is_blood_camp": false,
    "organized_by": "Medicare Charitable Trust",
    "hours_active": "10:00 AM - 3:00 PM",
    "start_date": "2025-07-30",
    "end_date": "2025-07-30",
    "city": "Agartala",
    "state": "Tripura",
    "id": "8c9e9fd0f92890a1cac3c120bd5831b4ef81c791"
  },
  {
    "name": "Vital Blood Services",
    "address": "Main Road, Agartala",
    "phone": "153-5522520",
    "blood_required": [
      "AB-",
      "A+",
      "AB+",
      "A-"
    ],
    "latitude": 30.3335,
    "longitude": 85.9232,
    "is_blood_camp": true,
    "organized_by": "Medicare Charitable Trust",
    "hours_active": "8:00 AM - 6:00 PM",
    "start_date": "2025-07-30",
    "end_date": "2025-07-30",
    "city": "Agartala",
    "state": "Tripura",
    "id": "ca7ca354811f2e9a08310d9a57c3515ee55570e4"
  },
  {
    "name": "Medicare Blood Services",
    "address": "Main Road, Agartala",
    "phone": "777-7788228",
    "blood_required": [
      "O+",
      "B+"
    ],
    "latitude": 30.1927,
    "longitude": 94.3602,
    "is_blood_camp": true,
    "organized_by": "City Hospital",
    "hours_active": "8:00 AM - 2:00 PM",
    "start_date": "2025-07-30",
    "end_date": "2025-07-30",
    "city": "Agartala",
    "state": "Tripura",
    "id": "03673602cbc41cef3a3783f79805419cdc354c34"
  },
  {
    "name": "LifeCare Blood Foundation",
    "address": "Main Road, Agartala",
    "phone": "391-7252100",
    "blood_required": [
      "AB-",
      "AB+",
      "A+"
    ],
    "latitude": 24.3966,
    "longitude": 93.0258,
    "is_blood_camp": true,
    "organized_by": "LifeCare Trust",
    "hours_active": "11:00 AM - 5:00 PM",
    "start_date": "2025-07-31",
    "end_date": "2025-07-31",
    "city": "Agartala",
    "state": "Tripura",
    "id": "c9eea339f3d6df0e3d4b98d5d4df69abe942b1c0"
  },
  {
    "name": "Vital Blood Services",
    "address": "Main Road, Agartala",
    "phone": "923-2258907",
    "blood_required": [
      "A+",
      "AB+",
      "O-"
    ],
    "latitude": 15.3399,
    "longitude": 85.3668,
    "is_blood_camp": true,
    "organized_by": "LifeCare Trust",
    "hours_active": "9:00 AM - 5:00 PM",
    "start_date": "2025-07-31",
    "end_date": "2025-07-31",
    "city": "Agartala",
    "state": "Tripura",
    "id": "5f485ed265983552e84d8dd3887c565a359b3f1f"
  },
  {
    "name": "Hope Blood Centre",
    "address": "Main Road, Agartala",
    "phone": "267-2149301",
    "blood_required": [
      "B-",
      "A+"
    ],
    "latitude": 27.9653,
    "longitude": 85.6038,
    "is_blood_camp": false,
    "organized_by": "Indian Red Cross Society",
    "hours_active": "10:00 AM - 6:00 PM",
    "start_date": "2025-07-31",
    "end_date": "2025-07-31",
    "city": "Agartala",
    "state": "Tripura",
    "id": "d6ad2dd98236f815feeaef266c89b1530964c66a"
  },
  {
    "name": "Medicare Blood Centre",
    "address": "Main Road, Agartala",
    "phone": "228-1824174",
    "blood_required": [
      "A+",
      "B+",
      "B-",
      "AB+"
    ],
    "latitude": 30.8718,
    "longitude": 69.9693,
    "is_blood_camp": true,
    "organized_by": "LifeCare Trust",
    "hours_active": "10:00 AM - 2:00 PM",
    "start_date": "2025-08-02",
    "end_date": "2025-08-02",
    "city": "Agartala",
    "state": "Tripura",
    "id": "15547e080b72460532fa9bc94cf8dccb9d6ece63"
  },
  {
    "name": "Red Cross Blood Bank",
    "address": "Main Road, Agartala",
    "phone": "931-4921999",
    "blood_required": [
      "O+",
      "A-",
      "AB+"
    ],
    "latitude": 8.2411,
    "longitude": 85.9988,
    "is_blood_camp": false,
    "organized_by": "Medicare Charitable Trust",
    "hours_active": "8:00 AM - 3:00 PM",
    "start_date": "2025-08-02",
    "end_date": "2025-08-02",
    "city": "Agartala",
    "state": "Tripura",
    "id": "e31dcddc102d06248167ce836a4994db98030b77"
  },
  {
    "name": "Apollo Blood Centre",
    "address": "Main Road, Agartala",
    "phone": "504-6913788",
    "blood_required": [
      "AB-",
      "B+",
      "B-"
    ],
    "latitude": 20.5006,
    "longitude": 92.1217,
    "is_blood_camp": false,
    "organized_by": "LifeCare Trust",
    "hours_active": "11:00 AM - 2:00 PM",
    "start_date": "2025-08-03",
    "end_date": "2025-08-03",
    "city": "Agartala",
    "state": "Tripura",
    "id": "97ebd9e357d697e49b9102afb3a8727cefa3a838"
  },
  {
    "name": "Apollo Blood Bank",
    "address": "Main Road, Agartala",
    "phone": "195-8538073",
    "blood_required": [
      "B+",
      "A-"
    ],
    "latitude": 14.7653,
    "longitude": 84.5576,
    "is_blood_camp": false,
    "organized_by": "Indian Red Cross Society",
    "hours_active": "9:00 AM - 5:00 PM",
    "start_date": "2025-08-03",
    "end_date": "2025-08-03",
    "city": "Agartala",
    "state": "Tripura",
    "id": "8584839244bd72b95ee569cd84983d02d5eff834"
  },
  {
    "name": "LifeCare Blood Bank",
    "address": "Main Road, Agra",
    "phone": "608-5308072",
    "blood_required": [
      "AB+",
      "O-"
    ],
    "latitude": 13.9109,
    "longitude": 93.1306,
    "is_blood_camp": false,
    "organized_by": "LifeCare Trust",
    "hours_active": "11:00 AM - 5:00 PM",
    "start_date": "2025-07-25",
    "end_date": "2025-07-25",
    "city": "Agra",
    "state": "Uttar Pradesh",
    "id": "8af90fc3111f2281392d2e6a7a736df739ef7a5e"
  },
  {
    "name": "Medicare Blood Bank",
    "address": "Main Road, Agra",
    "phone": "304-7517201",
    "blood_required": [
      "AB+",
      "O+"
    ],
    "latitude": 17.5262,
    "longitude": 92.0868,
    "is_blood_camp": true,
    "organized_by": "LifeCare Trust",
    "hours_active": "8:00 AM - 6:00 PM",
    "start_date": "2025-07-25",
    "end_date": "2025-07-25",
    "city": "Agra",
    "state": "Uttar Pradesh",
    "id": "50263edcd5a5b6a348007767dea35ce759a5e7f5"
  },
  {
    "name": "City Blood Services",
    "address": "Main Road, Agra",
    "phone": "564-9843096",
    "blood_required": [
      "O+",
      "O-",
      "B+",
      "AB+"
    ],
    "latitude": 9.1233,
    "longitude": 81.347,
    "is_blood_camp": true,
    "organized_by": "LifeCare Trust",
    "hours_active": "9:00 AM - 5:00 PM",
    "start_date": "2025-07-25",
    "end_date": "2025-07-25",
    "city": "Agra",
    "state": "Uttar Pradesh",
    "id": "987cc2d69eff08b3df6301707dad0dc15924d2cf"
  },
  {
    "name": "City Blood Foundation",
    "address": "Main Road, Agra",
    "phone": "261-1623158",
    "blood_required": [
      "AB-",
      "A-"
    ],
    "latitude": 27.9577,
    "longitude": 93.2385,
    "is_blood_camp": true,
    "organized_by": "Indian Red Cross Society",
    "hours_active": "8:00 AM - 4:00 PM",
    "start_date": "2025-07-26",
    "end_date": "2025-07-26",
    "city": "Agra",
    "state": "Uttar Pradesh",
    "id": "a1c6d3cd9ea2df6f504b0becd115aa96ddeace49"
  },
  {
    "name": "Vital Blood Foundation",
    "address": "Main Road, Agra",
    "phone": "802-9282063",
    "blood_required": [
      "O+",
      "B-"
    ],
    "latitude": 32.1537,
    "longitude": 81.4656,
    "is_blood_camp": true,
    "organized_by": "Indian Red Cross Society",
    "hours_active": "11:00 AM - 4:00 PM",
    "start_date": "2025-07-27",
    "end_date": "2025-07-27",
    "city": "Agra",
    "state": "Uttar Pradesh",
    "id": "1c3fa6cde2c55d862eae96dda3a1a21a9ce0f9cb"
  },
  {
    "name": "Red Cross Blood Centre",
    "address": "Main Road, Agra",
    "phone": "687-6952265",
    "blood_required": [
      "B-",
      "A-",
      "B+"
    ],
    "latitude": 16.9243,
    "longitude": 92.5923,
    "is_blood_camp": true,
    "organized_by": "City Hospital",
    "hours_active": "8:00 AM - 5:00 PM",
    "start_date": "2025-07-27",
    "end_date": "2025-07-27",
    "city": "Agra",
    "state": "Uttar Pradesh",
    "id": "070322d0516e733d1df6c731c8cbde5f729885db"
  },
  {
    "name": "Red Cross Blood Foundation",
    "address": "Main Road, Agra",
    "phone": "296-3324973",
    "blood_required": [
      "B+",
      "B-",
      "A-"
    ],
    "latitude": 27.2394,
    "longitude": 70.8268,
    "is_blood_camp": false,
    "organized_by": "City Hospital",
    "hours_active": "8:00 AM - 3:00 PM",
    "start_date": "2025-07-28",
    "end_date": "2025-07-28",
    "city": "Agra",
    "state": "Uttar Pradesh",
    "id": "e28798a5339c1ce7bdca040a7ea52f79aed47e1f"
  },
  {
    "name": "Sanjeevani Blood Foundation",
    "address": "Main Road, Agra",
    "phone": "154-5043436",
    "blood_required": [
      "B+",
      "B-"
    ],
    "latitude": 30.962,
    "longitude": 95.4574,
    "is_blood_camp": true,
    "organized_by": "Medicare Charitable Trust",
    "hours_active": "10:00 AM - 4:00 PM",
    "start_date": "2025-07-28",
    "end_date": "2025-07-28",
    "city": "Agra",
    "state": "Uttar Pradesh",
    "id": "e356cae7aeb29d402ba28bb8daf67d85c0f44c0b"
  },
  {
    "name": "Vital Blood Centre",
    "address": "Main Road, Agra",
    "phone": "739-6401588",
    "blood_required": [
      "O-",
      "A-"
    ],
    "latitude": 20.5592,
    "longitude": 90.6549,
    "is_blood_camp": false,
    "organized_by": "Indian Red Cross Society",
    "hours_active": "10:00 AM - 3:00 PM",
    "start_date": "2025-07-29",
    "end_date": "2025-07-29",
    "city": "Agra",
    "state": "Uttar Pradesh",
    "id": "03a10435df4744021cb9ecd225c37dccef590535"
  },
  {
    "name": "LifeCare Blood Services",
    "address": "Main Road, Agra",
    "phone": "108-7834502",
    "blood_required": [
      "O-",
      "AB-",
      "B-",
      "AB+"
    ],
    "latitude": 29.2301,
    "longitude": 84.7497,
    "is_blood_camp": false,
    "organized_by": "Indian Red Cross Society",
    "hours_active": "8:00 AM - 3:00 PM",
    "start_date": "2025-07-29",
    "end_date": "2025-07-29",
    "city": "Agra",
    "state": "Uttar Pradesh",
    "id": "08d21e3fbf67efe656db4a20837ee9bb6e525592"
  },
  {
    "name": "Apollo Blood Bank",
    "address": "Main Road, Agra",
    "phone": "771-7418053",
    "blood_required": [
      "B+",
      "AB-",
      "AB+"
    ],
    "latitude": 9.4102,
    "longitude": 91.8688,
    "is_blood_camp": false,
    "organized_by": "City Hospital",
    "hours_active": "8:00 AM - 2:00 PM",
    "start_date": "2025-07-29",
    "end_date": "2025-07-29",
    "city": "Agra",
    "state": "Uttar Pradesh",
    "id": "17f08307ad10e00a7065e64b018c401fa4f8579b"
  },
  {
    "name": "Red Cross Blood Services",
    "address": "Main Road, Agra",
    "phone": "289-8955415",
    "blood_required": [
      "A-",
      "O+",
      "O-"
    ],
    "latitude": 11.9984,
    "longitude": 82.3174,
    "is_blood_camp": false,
    "organized_by": "LifeCare Trust",
    "hours_active": "11:00 AM - 6:00 PM",
    "start_date": "2025-07-29",
    "end_date": "2025-07-29",
    "city": "Agra",
    "state": "Uttar Pradesh",
    "id": "43c63c7e129e534fb7a91b6eb58dce5348e84962"
  },
  {
    "name": "Sanjeevani Blood Centre",
    "address": "Main Road, Agra",
    "phone": "909-8104659",
    "blood_required": [
      "AB+",
      "B-",
      "O+",
      "A+"
    ],
    "latitude": 22.3292,
    "longitude": 81.9644,
    "is_blood_camp": true,
    "organized_by": "LifeCare Trust",
    "hours_active": "9:00 AM - 4:00 PM",
    "start_date": "2025-07-31",
    "end_date": "2025-07-31",
    "city": "Agra",
    "state": "Uttar Pradesh",
    "id": "14414b5dc257284339f2d72aed22fd1fbe8d457b"
  },
  {
    "name": "Sanjeevani Blood Bank",
    "address": "Main Road, Agra",
    "phone": "971-4962509",
    "blood_required": [
      "AB+",
      "O-",
      "A+"
    ],
    "latitude": 12.3934,
    "longitude": 80.445,
    "is_blood_camp": true,
    "organized_by": "City Hospital",
    "hours_active": "8:00 AM - 2:00 PM",
    "start_date": "2025-07-31",
    "end_date": "2025-07-31",
    "city": "Agra",
    "state": "Uttar Pradesh",
    "id": "777c5655d12e7c31cc4b3786ada1d805fe82f4aa"
  },
  {
    "name": "Medicare Blood Foundation",
    "address": "Main Road, Agra",
    "phone": "744-4352989",
    "blood_required": [
      "O-",
      "A-"
    ],
    "latitude": 22.6722,
    "longitude": 82.5578,
    "is_blood_camp": false,
    "organized_by": "LifeCare Trust",
    "hours_active": "8:00 AM - 4:00 PM",
    "start_date": "2025-07-31",
    "end_date": "2025-07-31",
    "city": "Agra",
    "state": "Uttar Pradesh",
    "id": "54a45bccb71601dc7a4646bd1c4521bf3f667a99"
  },
  {
    "name": "Hope Blood Foundation",
    "address": "Main Road, Agra",
    "phone": "235-7010512",
    "blood_required": [
      "AB+",
      "O-"
    ],
    "latitude": 25.0993,
    "longitude": 78.605,
    "is_blood_camp": true,
    "organized_by": "Indian Red Cross Society",
    "hours_active": "11:00 AM - 6:00 PM",
    "start_date": "2025-08-02",
    "end_date": "2025-08-02",
    "city": "Agra",
    "state": "Uttar Pradesh",
    "id": "25b9bd10303dd7e1510578be72d5ae84a7a8e1b5"
  },
  {
    "name": "Hope Blood Bank",
    "address": "Main Road, Agra",
    "phone": "945-2128907",
    "blood_required": [
      "A+",
      "A-"
    ],
    "latitude": 21.2951,
    "longitude": 79.9678,
    "is_blood_camp": false,
    "organized_by": "City Hospital",
    "hours_active": "11:00 AM - 5:00 PM",
    "start_date": "2025-08-02",
    "end_date": "2025-08-02",
    "city": "Agra",
    "state": "Uttar Pradesh",
    "id": "576ba608fb8caddfda80c4e31b6d558e08531269"
  },
  {
    "name": "Sanjeevani Blood Centre",
    "address": "Main Road, Agra",
    "phone": "628-7299723",
    "blood_required": [
      "O+",
      "AB-"
    ],
    "latitude": 23.0634,
    "longitude": 86.0665,
    "is_blood_camp": true,
    "organized_by": "City Hospital",
    "hours_active": "10:00 AM - 5:00 PM",
    "start_date": "2025-08-03",
    "end_date": "2025-08-03",
    "city": "Agra",
    "state": "Uttar Pradesh",
    "id": "870b5b9e8a0aa574beac8c8b54956d347a8b9bd2"
  },
  {
    "name": "Unity Blood Services",
    "address": "Main Road, Ahmedabad",
    "phone": "770-1399433",
    "blood_required": [
      "A+",
      "O-"
    ],
    "latitude": 9.7204,
    "longitude": 68.9642,
    "is_blood_camp": true,
    "organized_by": "LifeCare Trust",
    "hours_active": "10:00 AM - 2:00 PM",
    "start_date": "2025-07-26",
    "end_date": "2025-07-26",
    "city": "Ahmedabad",
    "state": "Gujarat",
    "id": "ca7d93e2fb84bdf083b7d608bc6a605df43f89c6"
  },
  {
    "name": "Apollo Blood Services",
    "address": "Main Road, Ahmedabad",
    "phone": "937-8419151",
    "blood_required": [
      "AB-",
      "O+"
    ],
    "latitude": 34.6967,
    "longitude": 74.1518,
    "is_blood_camp": false,
    "organized_by": "Medicare Charitable Trust",
    "hours_active": "11:00 AM - 5:00 PM",
    "start_date": "2025-07-26",
    "end_date": "2025-07-26",
    "city": "Ahmedabad",
    "state": "Gujarat",
    "id": "96c041164d4ecbcff78e4c068897bdfc0e43cd67"
  },
  {
    "name": "Vital Blood Bank",
    "address": "Main Road, Ahmedabad",
    "phone": "295-1685525",
    "blood_required": [
      "O-",
      "A+",
      "B-",
      "AB-"
    ],
    "latitude": 31.4367,
    "longitude": 95.2194,
    "is_blood_camp": false,
    "organized_by": "City Hospital",
    "hours_active": "9:00 AM - 4:00 PM",
    "start_date": "2025-07-27",
    "end_date": "2025-07-27",
    "city": "Ahmedabad",
    "state": "Gujarat",
    "id": "1c602417b82de97618e00cab4080325bfa217af6"
  },
  {
    "name": "Medicare Blood Foundation",
    "address": "Main Road, Ahmedabad",
    "phone": "276-9741393",
    "blood_required": [
      "B+",
      "AB-"
    ],
    "latitude": 24.7348,
    "longitude": 77.713,
    "is_blood_camp": false,
    "organized_by": "Medicare Charitable Trust",
    "hours_active": "11:00 AM - 5:00 PM",
    "start_date": "2025-07-27",
    "end_date": "2025-07-27",
    "city": "Ahmedabad",
    "state": "Gujarat",
    "id": "ba87dd89bc6864c68ad44f7f9d42b2630cb1e856"
  },
  {
    "name": "Medicare Blood Foundation",
    "address": "Main Road, Ahmedabad",
    "phone": "765-9191691",
    "blood_required": [
      "A+",
      "O+",
      "A-"
    ],
    "latitude": 31.0414,
    "longitude": 83.0198,
    "is_blood_camp": false,
    "organized_by": "City Hospital",
    "hours_active": "9:00 AM - 6:00 PM",
    "start_date": "2025-07-27",
    "end_date": "2025-07-27",
    "city": "Ahmedabad",
    "state": "Gujarat",
    "id": "18933b25dbc2ae244df15703b23767500c14e2a3"
  },
  {
    "name": "Sanjeevani Blood Centre",
    "address": "Main Road, Ahmedabad",
    "phone": "404-7438501",
    "blood_required": [
      "A-",
      "AB+",
      "A+"
    ],
    "latitude": 15.3128,
    "longitude": 73.4765,
    "is_blood_camp": false,
    "organized_by": "City Hospital",
    "hours_active": "8:00 AM - 3:00 PM",
    "start_date": "2025-07-28",
    "end_date": "2025-07-28",
    "city": "Ahmedabad",
    "state": "Gujarat",
    "id": "6b29043da66ab74a692dc13bba4070d8dbcf2ac2"
  },
  {
    "name": "Apollo Blood Centre",
    "address": "Main Road, Ahmedabad",
    "phone": "131-1660527",
    "blood_required": [
      "O-",
      "A-",
      "O+",
      "AB+"
    ],
    "latitude": 24.6586,
    "longitude": 72.8512,
    "is_blood_camp": true,
    "organized_by": "City Hospital",
    "hours_active": "9:00 AM - 2:00 PM",
    "start_date": "2025-07-29",
    "end_date": "2025-07-29",
    "city": "Ahmedabad",
    "state": "Gujarat",
    "id": "33b2ab6c437b51851caa13b8a2858d0245cc2c36"
  },
  {
    "name": "Apollo Blood Centre",
    "address": "Main Road, Ahmedabad",
    "phone": "123-6560996",
    "blood_required": [
      "O+",
      "AB-"
    ],
    "latitude": 32.5146,
    "longitude": 93.1107,
    "is_blood_camp": true,
    "organized_by": "LifeCare Trust",
    "hours_active": "11:00 AM - 3:00 PM",
    "start_date": "2025-07-29",
    "end_date": "2025-07-29",
    "city": "Ahmedabad",
    "state": "Gujarat",
    "id": "6de1f583d014e4baa83a5d1f291e4dad23d9be11"
  },
  {
    "name": "Vital Blood Centre",
    "address": "Main Road, Ahmedabad",
    "phone": "201-8544918",
    "blood_required": [
      "AB+",
      "AB-"
    ],
    "latitude": 24.5047,
    "longitude": 95.1359,
    "is_blood_camp": true,
    "organized_by": "City Hospital",
    "hours_active": "8:00 AM - 6:00 PM",
    "start_date": "2025-07-29",
    "end_date": "2025-07-29",
    "city": "Ahmedabad",
    "state": "Gujarat",
    "id": "2ef3e5ea9b063e3a7417efeef7720502758c3716"
  },
  {
    "name": "City Blood Bank",
    "address": "Main Road, Ahmedabad",
    "phone": "742-3016793",
    "blood_required": [
      "AB+",
      "B+",
      "A+",
      "AB-"
    ],
    "latitude": 20.365,
    "longitude": 93.3987,
    "is_blood_camp": true,
    "organized_by": "Medicare Charitable Trust",
    "hours_active": "9:00 AM - 2:00 PM",
    "start_date": "2025-07-30",
    "end_date": "2025-07-30",
    "city": "Ahmedabad",
    "state": "Gujarat",
    "id": "2a0c4bc81432177fd98f4aab477e32e922ccef18"
  },
  {
    "name": "Medicare Blood Centre",
    "address": "Main Road, Ahmedabad",
    "phone": "801-6158193",
    "blood_required": [
      "AB-",
      "AB+"
    ],
    "latitude": 30.0925,
    "longitude": 70.076,
    "is_blood_camp": false,
    "organized_by": "LifeCare Trust",
    "hours_active": "9:00 AM - 4:00 PM",
    "start_date": "2025-07-30",
    "end_date": "2025-07-30",
    "city": "Ahmedabad",
    "state": "Gujarat",
    "id": "9740069e17595910b6f2988f6daef56f0d50014f"
  },
  {
    "name": "Apollo Blood Services",
    "address": "Main Road, Ahmedabad",
    "phone": "253-6209138",
    "blood_required": [
      "AB-",
      "A+",
      "A-",
      "B-"
    ],
    "latitude": 29.694,
    "longitude": 78.1621,
    "is_blood_camp": true,
    "organized_by": "Medicare Charitable Trust",
    "hours_active": "9:00 AM - 2:00 PM",
    "start_date": "2025-07-30",
    "end_date": "2025-07-30",
    "city": "Ahmedabad",
    "state": "Gujarat",
    "id": "f004d51cc197bae82f948ddb34e23456070d6eb2"
  },
  {
    "name": "Vital Blood Foundation",
    "address": "Main Road, Ahmedabad",
    "phone": "458-8155341",
    "blood_required": [
      "O+",
      "A+"
    ],
    "latitude": 10.97,
    "longitude": 81.0036,
    "is_blood_camp": false,
    "organized_by": "LifeCare Trust",
    "hours_active": "8:00 AM - 3:00 PM",
    "start_date": "2025-07-31",
    "end_date": "2025-07-31",
    "city": "Ahmedabad",
    "state": "Gujarat",
    "id": "54b167fd9ff919f770e52ecf0e365adc5baf453f"
  },
  {
    "name": "Shreeji Blood Foundation",
    "address": "Main Road, Ahmedabad",
    "phone": "315-1345511",
    "blood_required": [
      "B-",
      "O-",
      "O+"
    ],
    "latitude": 11.1633,
    "longitude": 95.7903,
    "is_blood_camp": true,
    "organized_by": "Indian Red Cross Society",
    "hours_active": "8:00 AM - 5:00 PM",
    "start_date": "2025-07-31",
    "end_date": "2025-07-31",
    "city": "Ahmedabad",
    "state": "Gujarat",
    "id": "f8a7c9aba949d806c3383c12626f1021a422e5b8"
  },
  {
    "name": "Shreeji Blood Services",
    "address": "Main Road, Ahmedabad",
    "phone": "938-1301547",
    "blood_required": [
      "B-",
      "A-",
      "A+",
      "O+"
    ],
    "latitude": 12.6488,
    "longitude": 81.1425,
    "is_blood_camp": true,
    "organized_by": "LifeCare Trust",
    "hours_active": "9:00 AM - 5:00 PM",
    "start_date": "2025-08-01",
    "end_date": "2025-08-01",
    "city": "Ahmedabad",
    "state": "Gujarat",
    "id": "6a5d76d816eb11204026d1f7c8aee2399e8566ae"
  },
  {
    "name": "Unity Blood Centre",
    "address": "Main Road, Ahmedabad",
    "phone": "764-3021593",
    "blood_required": [
      "B-",
      "O-"
    ],
    "latitude": 31.7191,
    "longitude": 76.1186,
    "is_blood_camp": false,
    "organized_by": "Indian Red Cross Society",
    "hours_active": "11:00 AM - 2:00 PM",
    "start_date": "2025-08-01",
    "end_date": "2025-08-01",
    "city": "Ahmedabad",
    "state": "Gujarat",
    "id": "928fc4b93fbdff6d429cd33021c37aefb810629f"
  },
  {
    "name": "Shreeji Blood Foundation",
    "address": "Main Road, Ahmedabad",
    "phone": "696-7541116",
    "blood_required": [
      "O-",
      "B-",
      "AB-"
    ],
    "latitude": 29.2836,
    "longitude": 92.5575,
    "is_blood_camp": true,
    "organized_by": "Medicare Charitable Trust",
    "hours_active": "10:00 AM - 3:00 PM",
    "start_date": "2025-08-02",
    "end_date": "2025-08-02",
    "city": "Ahmedabad",
    "state": "Gujarat",
    "id": "7f7be3f44cb99b543a38f865de4406595c91d205"
  },
  {
    "name": "Vital Blood Bank",
    "address": "Main Road, Ahmedabad",
    "phone": "286-6793827",
    "blood_required": [
      "O+",
      "A-"
    ],
    "latitude": 24.7223,
    "longitude": 75.1022,
    "is_blood_camp": true,
    "organized_by": "City Hospital",
    "hours_active": "8:00 AM - 4:00 PM",
    "start_date": "2025-08-02",
    "end_date": "2025-08-02",
    "city": "Ahmedabad",
    "state": "Gujarat",
    "id": "b3b1833800b8c52eebb343be24e181df794038f2"
  },
  {
    "name": "Sanjeevani Blood Bank",
    "address": "Main Road, Ahmedabad",
    "phone": "337-5639634",
    "blood_required": [
      "O+",
      "AB+"
    ],
    "latitude": 25.3191,
    "longitude": 84.6373,
    "is_blood_camp": false,
    "organized_by": "Medicare Charitable Trust",
    "hours_active": "10:00 AM - 6:00 PM",
    "start_date": "2025-08-03",
    "end_date": "2025-08-03",
    "city": "Ahmedabad",
    "state": "Gujarat",
    "id": "9d5b95044fac20221f963e3f279a8bd0fc597ae2"
  },
  {
    "name": "LifeCare Blood Services",
    "address": "Main Road, Ahmedabad",
    "phone": "660-1050190",
    "blood_required": [
      "A+",
      "AB-"
    ],
    "latitude": 18.5063,
    "longitude": 81.1599,
    "is_blood_camp": false,
    "organized_by": "Indian Red Cross Society",
    "hours_active": "10:00 AM - 5:00 PM",
    "start_date": "2025-08-03",
    "end_date": "2025-08-03",
    "city": "Ahmedabad",
    "state": "Gujarat",
    "id": "37de0b71e967862b7ef50996b5bac93a62c866a3"
  },
  {
    "name": "Red Cross Blood Foundation",
    "address": "Main Road, Ahmedabad",
    "phone": "501-9011360",
    "blood_required": [
      "O+",
      "O-"
    ],
    "latitude": 17.9044,
    "longitude": 81.2426,
    "is_blood_camp": true,
    "organized_by": "Indian Red Cross Society",
    "hours_active": "9:00 AM - 6:00 PM",
    "start_date": "2025-08-03",
    "end_date": "2025-08-03",
    "city": "Ahmedabad",
    "state": "Gujarat",
    "id": "9436d7bed07b7e63abc8951afd8d26f0df773d58"
  },
  {
    "name": "Shreeji Blood Bank",
    "address": "Main Road, Ahmedabad",
    "phone": "339-1813541",
    "blood_required": [
      "O-",
      "B+"
    ],
    "latitude": 31.2375,
    "longitude": 70.2454,
    "is_blood_camp": false,
    "organized_by": "Medicare Charitable Trust",
    "hours_active": "11:00 AM - 2:00 PM",
    "start_date": "2025-08-03",
    "end_date": "2025-08-03",
    "city": "Ahmedabad",
    "state": "Gujarat",
    "id": "04b392b3cd1af9cffc2fbc3c15b46e0eeb69577f"
  },
  {
    "name": "Sanjeevani Blood Centre",
    "address": "Main Road, Aizawl",
    "phone": "924-9107787",
    "blood_required": [
      "B-",
      "O-",
      "AB-",
      "A+"
    ],
    "latitude": 26.4074,
    "longitude": 82.3305,
    "is_blood_camp": true,
    "organized_by": "Indian Red Cross Society",
    "hours_active": "9:00 AM - 4:00 PM",
    "start_date": "2025-07-25",
    "end_date": "2025-07-25",
    "city": "Aizawl",
    "state": "Mizoram",
    "id": "60aa979335b00523055688923645ab1e353731af"
  },
  {
    "name": "Hope Blood Centre",
    "address": "Main Road, Aizawl",
    "phone": "634-2041571",
    "blood_required": [
      "B-",
      "A-",
      "AB+",
      "O-"
    ],
    "latitude": 13.0424,
    "longitude": 75.4255,
    "is_blood_camp": true,
    "organized_by": "Medicare Charitable Trust",
    "hours_active": "9:00 AM - 2:00 PM",
    "start_date": "2025-07-25",
    "end_date": "2025-07-25",
    "city": "Aizawl",
    "state": "Mizoram",
    "id": "02a3df7e65f2ac4bea566b22cbfc6efeed3487bb"
  },
  {
    "name": "Sanjeevani Blood Centre",
    "address": "Main Road, Aizawl",
    "phone": "551-4668724",
    "blood_required": [
      "A+",
      "O-",
      "B+",
      "A-"
    ],
    "latitude": 33.9792,
    "longitude": 88.0869,
    "is_blood_camp": true,
    "organized_by": "Medicare Charitable Trust",
    "hours_active": "8:00 AM - 3:00 PM",
    "start_date": "2025-07-25",
    "end_date": "2025-07-25",
    "city": "Aizawl",
    "state": "Mizoram",
    "id": "0d52433143b789714ccdc8512e190971053e7993"
  },
  {
    "name": "Medicare Blood Centre",
    "address": "Main Road, Aizawl",
    "phone": "847-7514462",
    "blood_required": [
      "O-",
      "B+"
    ],
    "latitude": 29.6165,
    "longitude": 87.0484,
    "is_blood_camp": true,
    "organized_by": "Medicare Charitable Trust",
    "hours_active": "9:00 AM - 3:00 PM",
    "start_date": "2025-07-25",
    "end_date": "2025-07-25",
    "city": "Aizawl",
    "state": "Mizoram",
    "id": "2e1fd9170558c1f00e8e1f53e9943f881582e380"
  },
  {
    "name": "City Blood Foundation",
    "address": "Main Road, Aizawl",
    "phone": "167-4715804",
    "blood_required": [
      "B-",
      "O+",
      "A+"
    ],
    "latitude": 11.5389,
    "longitude": 85.6735,
    "is_blood_camp": true,
    "organized_by": "LifeCare Trust",
    "hours_active": "10:00 AM - 6:00 PM",
    "start_date": "2025-07-26",
    "end_date": "2025-07-26",
    "city": "Aizawl",
    "state": "Mizoram",
    "id": "ead22f6701069084f34200fe30b4e9eb7a4f6ed0"
  },
  {
    "name": "Medicare Blood Centre",
    "address": "Main Road, Aizawl",
    "phone": "830-7183258",
    "blood_required": [
      "AB-",
      "AB+",
      "O-"
    ],
    "latitude": 13.0446,
    "longitude": 92.7103,
    "is_blood_camp": true,
    "organized_by": "LifeCare Trust",
    "hours_active": "9:00 AM - 3:00 PM",
    "start_date": "2025-07-26",
    "end_date": "2025-07-26",
    "city": "Aizawl",
    "state": "Mizoram",
    "id": "b7de7efa7428decbc55ee7e140204dfd6250f1e1"
  },
  {
    "name": "Hope Blood Services",
    "address": "Main Road, Aizawl",
    "phone": "112-8666810",
    "blood_required": [
      "B+",
      "O+",
      "B-"
    ],
    "latitude": 26.8159,
    "longitude": 96.5249,
    "is_blood_camp": false,
    "organized_by": "Indian Red Cross Society",
    "hours_active": "10:00 AM - 2:00 PM",
    "start_date": "2025-07-27",
    "end_date": "2025-07-27",
    "city": "Aizawl",
    "state": "Mizoram",
    "id": "25467aee5284e54923ce5e8eb2369bd09479580a"
  },
  {
    "name": "Sanjeevani Blood Bank",
    "address": "Main Road, Aizawl",
    "phone": "143-7893398",
    "blood_required": [
      "O+",
      "AB-",
      "AB+",
      "A-"
    ],
    "latitude": 29.788,
    "longitude": 85.4678,
    "is_blood_camp": false,
    "organized_by": "Indian Red Cross Society",
    "hours_active": "10:00 AM - 4:00 PM",
    "start_date": "2025-07-27",
    "end_date": "2025-07-27",
    "city": "Aizawl",
    "state": "Mizoram",
    "id": "31cc990e3fae847f80098f958380d099f5957efc"
  },
  {
    "name": "Medicare Blood Services",
    "address": "Main Road, Aizawl",
    "phone": "660-5326769",
    "blood_required": [
      "AB+",
      "O+",
      "A-"
    ],
    "latitude": 31.0845,
    "longitude": 76.6719,
    "is_blood_camp": true,
    "organized_by": "Medicare Charitable Trust",
    "hours_active": "10:00 AM - 2:00 PM",
    "start_date": "2025-07-27",
    "end_date": "2025-07-27",
    "city": "Aizawl",
    "state": "Mizoram",
    "id": "1db636373b8a904e00a79b3348b734d480b4d5fd"
  },
  {
    "name": "Medicare Blood Centre",
    "address": "Main Road, Aizawl",
    "phone": "292-7819322",
    "blood_required": [
      "B-",
      "AB+",
      "O-",
      "O+"
    ],
    "latitude": 8.9548,
    "longitude": 94.1121,
    "is_blood_camp": false,
    "organized_by": "Medicare Charitable Trust",
    "hours_active": "10:00 AM - 6:00 PM",
    "start_date": "2025-07-27",
    "end_date": "2025-07-27",
    "city": "Aizawl",
    "state": "Mizoram",
    "id": "0f6b1da2a2597867133c07c5a3119e6f0aa7283e"
  },
  {
    "name": "City Blood Foundation",
    "address": "Main Road, Aizawl",
    "phone": "106-8066786",
    "blood_required": [
      "B+",
      "A+",
      "AB-"
    ],
    "latitude": 14.4811,
    "longitude": 69.1509,
    "is_blood_camp": false,
    "organized_by": "Indian Red Cross Society",
    "hours_active": "11:00 AM - 2:00 PM",
    "start_date": "2025-07-28",
    "end_date": "2025-07-28",
    "city": "Aizawl",
    "state": "Mizoram",
    "id": "78fbaf062822318b1899f3fb32dcbf54e4bc8e0b"
  },
  {
    "name": "City Blood Services",
    "address": "Main Road, Aizawl",
    "phone": "633-3871166",
    "blood_required": [
      "AB+",
      "B-",
      "O-",
      "A-"
    ],
    "latitude": 10.7458,
    "longitude": 88.9168,
    "is_blood_camp": true,
    "organized_by": "Indian Red Cross Society",
    "hours_active": "11:00 AM - 2:00 PM",
    "start_date": "2025-07-28",
    "end_date": "2025-07-28",
    "city": "Aizawl",
    "state": "Mizoram",
    "id": "7b2b0ef4ab13224d3a3fe7ee1019c99403b10079"
  },
  {
    "name": "City Blood Bank",
    "address": "Main Road, Aizawl",
    "phone": "800-3213479",
    "blood_required": [
      "B+",
      "B-",
      "AB-",
      "O+"
    ],
    "latitude": 8.0156,
    "longitude": 89.4947,
    "is_blood_camp": false,
    "organized_by": "Medicare Charitable Trust",
    "hours_active": "9:00 AM - 6:00 PM",
    "start_date": "2025-07-28",
    "end_date": "2025-07-28",
    "city": "Aizawl",
    "state": "Mizoram",
    "id": "af0568957a1875fd8eea1a22f8115865c4a497eb"
  },
  {
    "name": "Apollo Blood Services",
    "address": "Main Road, Aizawl",
    "phone": "721-6128335",
    "blood_required": [
      "AB+",
      "AB-"
    ],
    "latitude": 27.4636,
    "longitude": 76.3256,
    "is_blood_camp": false,
    "organized_by": "Medicare Charitable Trust",
    "hours_active": "11:00 AM - 4:00 PM",
    "start_date": "2025-07-29",
    "end_date": "2025-07-29",
    "city": "Aizawl",
    "state": "Mizoram",
    "id": "b7e3d076a1ce967da7478d9de850a35e3ad4cabd"
  },
  {
    "name": "Sanjeevani Blood Services",
    "address": "Main Road, Aizawl",
    "phone": "271-3206996",
    "blood_required": [
      "AB-",
      "A-",
      "AB+"
    ],
    "latitude": 21.859,
    "longitude": 78.2007,
    "is_blood_camp": true,
    "organized_by": "City Hospital",
    "hours_active": "8:00 AM - 5:00 PM",
    "start_date": "2025-07-29",
    "end_date": "2025-07-29",
    "city": "Aizawl",
    "state": "Mizoram",
    "id": "897e1517b7e428890d22325d5705418f3be32135"
  },
  {
    "name": "Red Cross Blood Services",
    "address": "Main Road, Aizawl",
    "phone": "678-1359604",
    "blood_required": [
      "B-",
      "AB-",
      "A-",
      "B+"
    ],
    "latitude": 10.5556,
    "longitude": 69.7441,
    "is_blood_camp": true,
    "organized_by": "Medicare Charitable Trust",
    "hours_active": "9:00 AM - 4:00 PM",
    "start_date": "2025-07-29",
    "end_date": "2025-07-29",
    "city": "Aizawl",
    "state": "Mizoram",
    "id": "d64b2c360327262b12a74707cc1c53d97aeba954"
  },
  {
    "name": "Vital Blood Bank",
    "address": "Main Road, Aizawl",
    "phone": "828-9744589",
    "blood_required": [
      "B+",
      "AB+",
      "O-"
    ],
    "latitude": 11.98,
    "longitude": 78.32,
    "is_blood_camp": true,
    "organized_by": "LifeCare Trust",
    "hours_active": "10:00 AM - 5:00 PM",
    "start_date": "2025-07-29",
    "end_date": "2025-07-29",
    "city": "Aizawl",
    "state": "Mizoram",
    "id": "78f5673607e2f28193934d322d44865b5e6a9802"
  },
  {
    "name": "Vital Blood Foundation",
    "address": "Main Road, Aizawl",
    "phone": "233-2546801",
    "blood_required": [
      "O-",
      "AB+",
      "A-"
    ],
    "latitude": 10.2192,
    "longitude": 93.1364,
    "is_blood_camp": false,
    "organized_by": "City Hospital",
    "hours_active": "9:00 AM - 4:00 PM",
    "start_date": "2025-07-30",
    "end_date": "2025-07-30",
    "city": "Aizawl",
    "state": "Mizoram",
    "id": "0bd8cc5ae8072d5a9a6d8ff72d2031ebf94799c9"
  },
  {
    "name": "City Blood Foundation",
    "address": "Main Road, Aizawl",
    "phone": "681-7949473",
    "blood_required": [
      "AB+",
      "A+"
    ],
    "latitude": 8.9606,
    "longitude": 87.4173,
    "is_blood_camp": true,
    "organized_by": "Indian Red Cross Society",
    "hours_active": "10:00 AM - 3:00 PM",
    "start_date": "2025-07-30",
    "end_date": "2025-07-30",
    "city": "Aizawl",
    "state": "Mizoram",
    "id": "53bc64ee0dd65dfc9d5747b5335627b70ec64b5e"
  },
  {
    "name": "LifeCare Blood Foundation",
    "address": "Main Road, Aizawl",
    "phone": "953-3796640",
    "blood_required": [
      "O+",
      "AB-",
      "B-"
    ],
    "latitude": 27.6343,
    "longitude": 80.3225,
    "is_blood_camp": false,
    "organized_by": "LifeCare Trust",
    "hours_active": "10:00 AM - 4:00 PM",
    "start_date": "2025-07-30",
    "end_date": "2025-07-30",
    "city": "Aizawl",
    "state": "Mizoram",
    "id": "c7a835c8876c2a8c177c4898d40aeafc757423f7"
  },
  {
    "name": "Apollo Blood Centre",
    "address": "Main Road, Aizawl",
    "phone": "755-7498448",
    "blood_required": [
      "B+",
      "A-",
      "O-",
      "O+"
    ],
    "latitude": 32.2721,
    "longitude": 86.2719,
    "is_blood_camp": true,
    "organized_by": "LifeCare Trust",
    "hours_active": "10:00 AM - 4:00 PM",
    "start_date": "2025-08-01",
    "end_date": "2025-08-01",
    "city": "Aizawl",
    "state": "Mizoram",
    "id": "d6072021590cfead164d8db33a2dde4463593262"
  },
  {
    "name": "Unity Blood Bank",
    "address": "Main Road, Aizawl",
    "phone": "201-9483222",
    "blood_required": [
      "B-",
      "AB-"
    ],
    "latitude": 16.5043,
    "longitude": 77.4061,
    "is_blood_camp": true,
    "organized_by": "Medicare Charitable Trust",
    "hours_active": "10:00 AM - 6:00 PM",
    "start_date": "2025-08-01",
    "end_date": "2025-08-01",
    "city": "Aizawl",
    "state": "Mizoram",
    "id": "541bdf7ff9ea8da87aeb0f3792e1e6c5b2dd24b6"
  },
  {
    "name": "Vital Blood Services",
    "address": "Main Road, Aizawl",
    "phone": "592-6972259",
    "blood_required": [
      "B+",
      "A+"
    ],
    "latitude": 32.3275,
    "longitude": 70.5767,
    "is_blood_camp": false,
    "organized_by": "LifeCare Trust",
    "hours_active": "9:00 AM - 5:00 PM",
    "start_date": "2025-08-01",
    "end_date": "2025-08-01",
    "city": "Aizawl",
    "state": "Mizoram",
    "id": "b5dc6123dbfda32e185ed8303e0d7aef9817a168"
  },
  {
    "name": "Sanjeevani Blood Services",
    "address": "Main Road, Aizawl",
    "phone": "950-8121837",
    "blood_required": [
      "O+",
      "AB-",
      "O-",
      "B-"
    ],
    "latitude": 25.9321,
    "longitude": 81.695,
    "is_blood_camp": false,
    "organized_by": "City Hospital",
    "hours_active": "11:00 AM - 3:00 PM",
    "start_date": "2025-08-01",
    "end_date": "2025-08-01",
    "city": "Aizawl",
    "state": "Mizoram",
    "id": "9882f7ac35332f626729783fa325ad21a1967bae"
  },
  {
    "name": "Unity Blood Foundation",
    "address": "Main Road, Aizawl",
    "phone": "309-3981833",
    "blood_required": [
      "O+",
      "B-",
      "A-",
      "O-"
    ],
    "latitude": 27.1813,
    "longitude": 74.909,
    "is_blood_camp": false,
    "organized_by": "LifeCare Trust",
    "hours_active": "11:00 AM - 4:00 PM",
    "start_date": "2025-08-02",
    "end_date": "2025-08-02",
    "city": "Aizawl",
    "state": "Mizoram",
    "id": "e9963e5c6ce5d2aba779cd16977fc80f7cab90bd"
  },
  {
    "name": "Apollo Blood Foundation",
    "address": "Main Road, Aizawl",
    "phone": "935-1326347",
    "blood_required": [
      "A+",
      "O-"
    ],
    "latitude": 17.3831,
    "longitude": 83.8984,
    "is_blood_camp": false,
    "organized_by": "Indian Red Cross Society",
    "hours_active": "10:00 AM - 6:00 PM",
    "start_date": "2025-08-03",
    "end_date": "2025-08-03",
    "city": "Aizawl",
    "state": "Mizoram",
    "id": "902e8b7ffc33de35669539313395d9c149ea4a5c"
  },
  {
    "name": "Shreeji Blood Centre",
    "address": "Main Road, Aizawl",
    "phone": "638-9516679",
    "blood_required": [
      "A-",
      "O-",
      "B-"
    ],
    "latitude": 15.2519,
    "longitude": 91.7067,
    "is_blood_camp": false,
    "organized_by": "City Hospital",
    "hours_active": "9:00 AM - 5:00 PM",
    "start_date": "2025-08-03",
    "end_date": "2025-08-03",
    "city": "Aizawl",
    "state": "Mizoram",
    "id": "4f79e4bee1aa62b50f90f7d781de77b4fea85014"
  },
  {
    "name": "Red Cross Blood Foundation",
    "address": "Main Road, Aizawl",
    "phone": "344-1803602",
    "blood_required": [
      "B-",
      "O-"
    ],
    "latitude": 34.537,
    "longitude": 73.7098,
    "is_blood_camp": true,
    "organized_by": "City Hospital",
    "hours_active": "11:00 AM - 4:00 PM",
    "start_date": "2025-08-03",
    "end_date": "2025-08-03",
    "city": "Aizawl",
    "state": "Mizoram",
    "id": "d46e7efcb1e3c826237eca296279ceb78b490827"
  },
  {
    "name": "Apollo Blood Services",
    "address": "Main Road, Aizawl",
    "phone": "337-3961866",
    "blood_required": [
      "A-",
      "O-",
      "A+"
    ],
    "latitude": 34.7892,
    "longitude": 77.1607,
    "is_blood_camp": false,
    "organized_by": "Indian Red Cross Society",
    "hours_active": "11:00 AM - 6:00 PM",
    "start_date": "2025-08-03",
    "end_date": "2025-08-03",
    "city": "Aizawl",
    "state": "Mizoram",
    "id": "643e28d6c69a78408d10bfa64de4ba19c41af0a0"
  },
  {
    "name": "Sanjeevani Blood Services",
    "address": "Main Road, Ajmer",
    "phone": "783-6239440",
    "blood_required": [
      "AB+",
      "B-",
      "A+"
    ],
    "latitude": 26.035,
    "longitude": 73.5367,
    "is_blood_camp": false,
    "organized_by": "City Hospital",
    "hours_active": "8:00 AM - 2:00 PM",
    "start_date": "2025-07-25",
    "end_date": "2025-07-25",
    "city": "Ajmer",
    "state": "Rajasthan",
    "id": "6448db036306c998cb963a977a3374b46e34e3d2"
  },
  {
    "name": "Unity Blood Foundation",
    "address": "Main Road, Ajmer",
    "phone": "767-9018407",
    "blood_required": [
      "O-",
      "AB-"
    ],
    "latitude": 13.0029,
    "longitude": 95.9364,
    "is_blood_camp": true,
    "organized_by": "Indian Red Cross Society",
    "hours_active": "9:00 AM - 6:00 PM",
    "start_date": "2025-07-26",
    "end_date": "2025-07-26",
    "city": "Ajmer",
    "state": "Rajasthan",
    "id": "6a5a7d9c7aa2f9d78718a5671a31596cf46bd3de"
  },
  {
    "name": "Hope Blood Services",
    "address": "Main Road, Ajmer",
    "phone": "785-1513072",
    "blood_required": [
      "A-",
      "O+"
    ],
    "latitude": 10.1961,
    "longitude": 72.9693,
    "is_blood_camp": true,
    "organized_by": "City Hospital",
    "hours_active": "8:00 AM - 3:00 PM",
    "start_date": "2025-07-26",
    "end_date": "2025-07-26",
    "city": "Ajmer",
    "state": "Rajasthan",
    "id": "9b229ce7961711cbe991ed7915661b6c65b6b718"
  },
  {
    "name": "Hope Blood Bank",
    "address": "Main Road, Ajmer",
    "phone": "905-4685578",
    "blood_required": [
      "A+",
      "AB+"
    ],
    "latitude": 22.4234,
    "longitude": 80.6458,
    "is_blood_camp": false,
    "organized_by": "Indian Red Cross Society",
    "hours_active": "8:00 AM - 6:00 PM",
    "start_date": "2025-07-26",
    "end_date": "2025-07-26",
    "city": "Ajmer",
    "state": "Rajasthan",
    "id": "4a9e869e738f1ec63b2a985d0c35c4a8f0c888ae"
  },
  {
    "name": "Red Cross Blood Bank",
    "address": "Main Road, Ajmer",
    "phone": "906-6627196",
    "blood_required": [
      "B+",
      "B-",
      "O-",
      "AB-"
    ],
    "latitude": 14.869,
    "longitude": 75.233,
    "is_blood_camp": false,
    "organized_by": "LifeCare Trust",
    "hours_active": "9:00 AM - 6:00 PM",
    "start_date": "2025-07-26",
    "end_date": "2025-07-26",
    "city": "Ajmer",
    "state": "Rajasthan",
    "id": "dea173289b3d5cb3cbc34f170072da1070bd522f"
  },
  {
    "name": "Hope Blood Services",
    "address": "Main Road, Ajmer",
    "phone": "540-8310905",
    "blood_required": [
      "A-",
      "B+",
      "B-",
      "O+"
    ],
    "latitude": 34.8195,
    "longitude": 96.3028,
    "is_blood_camp": true,
    "organized_by": "Indian Red Cross Society",
    "hours_active": "10:00 AM - 5:00 PM",
    "start_date": "2025-07-27",
    "end_date": "2025-07-27",
    "city": "Ajmer",
    "state": "Rajasthan",
    "id": "977d9ee18f4f4462f3efe7b4f726b99b83565101"
  },
  {
    "name": "Red Cross Blood Services",
    "address": "Main Road, Ajmer",
    "phone": "984-3315606",
    "blood_required": [
      "A+",
      "O+"
    ],
    "latitude": 34.8106,
    "longitude": 75.646,
    "is_blood_camp": false,
    "organized_by": "City Hospital",
    "hours_active": "8:00 AM - 5:00 PM",
    "start_date": "2025-07-27",
    "end_date": "2025-07-27",
    "city": "Ajmer",
    "state": "Rajasthan",
    "id": "a8a7a78171d0934a6cd064bc3f27f1c0ed18e4fa"
  },
  {
    "name": "Vital Blood Foundation",
    "address": "Main Road, Ajmer",
    "phone": "490-4359922",
    "blood_required": [
      "AB+",
      "O+"
    ],
    "latitude": 10.4729,
    "longitude": 77.1502,
    "is_blood_camp": true,
    "organized_by": "Medicare Charitable Trust",
    "hours_active": "10:00 AM - 3:00 PM",
    "start_date": "2025-07-27",
    "end_date": "2025-07-27",
    "city": "Ajmer",
    "state": "Rajasthan",
    "id": "7022f07659e0cca7d3c4f530eede885e6dfd8080"
  },
  {
    "name": "LifeCare Blood Bank",
    "address": "Main Road, Ajmer",
    "phone": "354-1486010",
    "blood_required": [
      "AB-",
      "AB+",
      "O+"
    ],
    "latitude": 33.3446,
    "longitude": 73.5457,
    "is_blood_camp": true,
    "organized_by": "City Hospital",
    "hours_active": "8:00 AM - 3:00 PM",
    "start_date": "2025-07-28",
    "end_date": "2025-07-28",
    "city": "Ajmer",
    "state": "Rajasthan",
    "id": "691e19635cd6f7ea34dd57aa153c1ab2d929849a"
  },
  {
    "name": "Vital Blood Bank",
    "address": "Main Road, Ajmer",
    "phone": "934-2236252",
    "blood_required": [
      "AB+",
      "O+",
      "B-"
    ],
    "latitude": 29.2898,
    "longitude": 91.0213,
    "is_blood_camp": false,
    "organized_by": "City Hospital",
    "hours_active": "8:00 AM - 4:00 PM",
    "start_date": "2025-07-29",
    "end_date": "2025-07-29",
    "city": "Ajmer",
    "state": "Rajasthan",
    "id": "ffbe042a601275a1a86e32cd032a94c46719b96c"
  },
  {
    "name": "Hope Blood Bank",
    "address": "Main Road, Ajmer",
    "phone": "202-2376436",
    "blood_required": [
      "B-",
      "AB-",
      "O-",
      "A-"
    ],
    "latitude": 16.794,
    "longitude": 75.5516,
    "is_blood_camp": false,
    "organized_by": "City Hospital",
    "hours_active": "10:00 AM - 4:00 PM",
    "start_date": "2025-07-29",
    "end_date": "2025-07-29",
    "city": "Ajmer",
    "state": "Rajasthan",
    "id": "81f7af4b783e6fa178239b036bf6150714128774"
  },
  {
    "name": "Apollo Blood Services",
    "address": "Main Road, Ajmer",
    "phone": "472-9639837",
    "blood_required": [
      "AB-",
      "B-",
      "O-"
    ],
    "latitude": 13.4922,
    "longitude": 89.9235,
    "is_blood_camp": false,
    "organized_by": "LifeCare Trust",
    "hours_active": "11:00 AM - 4:00 PM",
    "start_date": "2025-07-29",
    "end_date": "2025-07-29",
    "city": "Ajmer",
    "state": "Rajasthan",
    "id": "2606baafa76d9e4d2b563fafe351421e9f226a03"
  },
  {
    "name": "Shreeji Blood Bank",
    "address": "Main Road, Ajmer",
    "phone": "942-5136897",
    "blood_required": [
      "B+",
      "O-",
      "A+"
    ],
    "latitude": 15.8935,
    "longitude": 80.718,
    "is_blood_camp": true,
    "organized_by": "LifeCare Trust",
    "hours_active": "10:00 AM - 5:00 PM",
    "start_date": "2025-07-30",
    "end_date": "2025-07-30",
    "city": "Ajmer",
    "state": "Rajasthan",
    "id": "08493b1856ec3f135f4a1a3725c47ecdc9bb6740"
  },
  {
    "name": "Unity Blood Services",
    "address": "Main Road, Ajmer",
    "phone": "782-4551399",
    "blood_required": [
      "AB-",
      "A-",
      "O+"
    ],
    "latitude": 28.6285,
    "longitude": 88.2781,
    "is_blood_camp": false,
    "organized_by": "Indian Red Cross Society",
    "hours_active": "10:00 AM - 3:00 PM",
    "start_date": "2025-07-30",
    "end_date": "2025-07-30",
    "city": "Ajmer",
    "state": "Rajasthan",
    "id": "1bbb8ab8b90f4f5eedcffe248947b66db7e91e2c"
  },
  {
    "name": "Unity Blood Centre",
    "address": "Main Road, Ajmer",
    "phone": "679-6425347",
    "blood_required": [
      "A+",
      "A-"
    ],
    "latitude": 15.1428,
    "longitude": 90.6934,
    "is_blood_camp": false,
    "organized_by": "Indian Red Cross Society",
    "hours_active": "9:00 AM - 4:00 PM",
    "start_date": "2025-07-30",
    "end_date": "2025-07-30",
    "city": "Ajmer",
    "state": "Rajasthan",
    "id": "0051c2fe921e5f958512854ca01e05792f1f6891"
  },
  {
    "name": "City Blood Centre",
    "address": "Main Road, Ajmer",
    "phone": "473-1739048",
    "blood_required": [
      "O+",
      "AB-",
      "A-"
    ],
    "latitude": 32.5989,
    "longitude": 92.1348,
    "is_blood_camp": false,
    "organized_by": "City Hospital",
    "hours_active": "9:00 AM - 2:00 PM",
    "start_date": "2025-08-01",
    "end_date": "2025-08-01",
    "city": "Ajmer",
    "state": "Rajasthan",
    "id": "dc39a3fcf447624abdb68559bbf7323d0d5aa293"
  },
  {
    "name": "Unity Blood Centre",
    "address": "Main Road, Ajmer",
    "phone": "197-5650789",
    "blood_required": [
      "AB-",
      "B+",
      "A-"
    ],
    "latitude": 28.8551,
    "longitude": 85.2541,
    "is_blood_camp": false,
    "organized_by": "Indian Red Cross Society",
    "hours_active": "9:00 AM - 6:00 PM",
    "start_date": "2025-08-03",
    "end_date": "2025-08-03",
    "city": "Ajmer",
    "state": "Rajasthan",
    "id": "72c4dc18a1202fef4f634389e35adcab6e10e7da"
  },
  {
    "name": "LifeCare Blood Bank",
    "address": "Main Road, Ajmer",
    "phone": "773-3809243",
    "blood_required": [
      "B+",
      "B-",
      "AB+",
      "A+"
    ],
    "latitude": 10.2116,
    "longitude": 78.286,
    "is_blood_camp": false,
    "organized_by": "LifeCare Trust",
    "hours_active": "11:00 AM - 4:00 PM",
    "start_date": "2025-08-03",
    "end_date": "2025-08-03",
    "city": "Ajmer",
    "state": "Rajasthan",
    "id": "1d4e792b0b426eaf6897dc932bfee3dc4ab108f1"
  },
  {
    "name": "Unity Blood Services",
    "address": "Main Road, Ajmer",
    "phone": "541-6724601",
    "blood_required": [
      "O-",
      "A-"
    ],
    "latitude": 14.415,
    "longitude": 91.5539,
    "is_blood_camp": false,
    "organized_by": "Indian Red Cross Society",
    "hours_active": "10:00 AM - 6:00 PM",
    "start_date": "2025-08-03",
    "end_date": "2025-08-03",
    "city": "Ajmer",
    "state": "Rajasthan",
    "id": "7e1370a4d8c59f93e5f22c7650466db2e7a58456"
  },
  {
    "name": "City Blood Centre",
    "address": "Main Road, Ajmer",
    "phone": "496-9232538",
    "blood_required": [
      "A+",
      "O+",
      "B+"
    ],
    "latitude": 16.165,
    "longitude": 85.5284,
    "is_blood_camp": false,
    "organized_by": "City Hospital",
    "hours_active": "11:00 AM - 4:00 PM",
    "start_date": "2025-08-03",
    "end_date": "2025-08-03",
    "city": "Ajmer",
    "state": "Rajasthan",
    "id": "6f183cb86a7ebe314e9f46a510270691ffdfc10a"
  },
  {
    "name": "Red Cross Blood Centre",
    "address": "Main Road, Amarpur",
    "phone": "342-1961530",
    "blood_required": [
      "O+",
      "AB+",
      "O-"
    ],
    "latitude": 22.6866,
    "longitude": 71.5453,
    "is_blood_camp": false,
    "organized_by": "Medicare Charitable Trust",
    "hours_active": "8:00 AM - 4:00 PM",
    "start_date": "2025-07-25",
    "end_date": "2025-07-25",
    "city": "Amarpur",
    "state": "Tripura",
    "id": "010b2d4f36ef921be48e91be517f91e7c28552f9"
  },
  {
    "name": "Hope Blood Foundation",
    "address": "Main Road, Amarpur",
    "phone": "285-2654841",
    "blood_required": [
      "O-",
      "B-",
      "B+",
      "O+"
    ],
    "latitude": 32.0296,
    "longitude": 83.1325,
    "is_blood_camp": false,
    "organized_by": "LifeCare Trust",
    "hours_active": "10:00 AM - 5:00 PM",
    "start_date": "2025-07-25",
    "end_date": "2025-07-25",
    "city": "Amarpur",
    "state": "Tripura",
    "id": "73b67bb07480e71155d533aed615d3bea035d295"
  },
  {
    "name": "Shreeji Blood Services",
    "address": "Main Road, Amarpur",
    "phone": "496-7851095",
    "blood_required": [
      "A-",
      "B+",
      "B-"
    ],
    "latitude": 25.7762,
    "longitude": 85.4421,
    "is_blood_camp": false,
    "organized_by": "Medicare Charitable Trust",
    "hours_active": "8:00 AM - 2:00 PM",
    "start_date": "2025-07-26",
    "end_date": "2025-07-26",
    "city": "Amarpur",
    "state": "Tripura",
    "id": "7489c1d75f9679bf1cf034671660a4a800517ba1"
  },
  {
    "name": "Vital Blood Bank",
    "address": "Main Road, Amarpur",
    "phone": "254-7461523",
    "blood_required": [
      "O+",
      "O-",
      "A+"
    ],
    "latitude": 18.5443,
    "longitude": 71.1256,
    "is_blood_camp": false,
    "organized_by": "City Hospital",
    "hours_active": "10:00 AM - 5:00 PM",
    "start_date": "2025-07-26",
    "end_date": "2025-07-26",
    "city": "Amarpur",
    "state": "Tripura",
    "id": "8ad202a71111d04f5a0481fa20edc906860e6e0c"
  },
  {
    "name": "Sanjeevani Blood Services",
    "address": "Main Road, Amarpur",
    "phone": "674-4642181",
    "blood_required": [
      "B-",
      "B+"
    ],
    "latitude": 17.7312,
    "longitude": 73.9246,
    "is_blood_camp": false,
    "organized_by": "LifeCare Trust",
    "hours_active": "10:00 AM - 4:00 PM",
    "start_date": "2025-07-26",
    "end_date": "2025-07-26",
    "city": "Amarpur",
    "state": "Tripura",
    "id": "e6120f063f3b8e3387d76c0e8dd64ff952d16930"
  },
  {
    "name": "LifeCare Blood Foundation",
    "address": "Main Road, Amarpur",
    "phone": "337-4496254",
    "blood_required": [
      "AB-",
      "A-"
    ],
    "latitude": 21.6231,
    "longitude": 93.6187,
    "is_blood_camp": true,
    "organized_by": "City Hospital",
    "hours_active": "8:00 AM - 3:00 PM",
    "start_date": "2025-07-28",
    "end_date": "2025-07-28",
    "city": "Amarpur",
    "state": "Tripura",
    "id": "6d8687af9577fca1189ba6e1aa9e5b1f398363ea"
  },
  {
    "name": "Red Cross Blood Bank",
    "address": "Main Road, Amarpur",
    "phone": "794-1766014",
    "blood_required": [
      "AB+",
      "AB-"
    ],
    "latitude": 28.1762,
    "longitude": 74.8953,
    "is_blood_camp": false,
    "organized_by": "LifeCare Trust",
    "hours_active": "8:00 AM - 6:00 PM",
    "start_date": "2025-07-28",
    "end_date": "2025-07-28",
    "city": "Amarpur",
    "state": "Tripura",
    "id": "2063b754641eafc9e721d0357ad113801dd15602"
  },
  {
    "name": "Apollo Blood Foundation",
    "address": "Main Road, Amarpur",
    "phone": "322-6078865",
    "blood_required": [
      "AB+",
      "AB-"
    ],
    "latitude": 19.0592,
    "longitude": 93.3846,
    "is_blood_camp": false,
    "organized_by": "City Hospital",
    "hours_active": "10:00 AM - 4:00 PM",
    "start_date": "2025-07-28",
    "end_date": "2025-07-28",
    "city": "Amarpur",
    "state": "Tripura",
    "id": "b9a5cfd8791e4b63a01793360b5a71c16199bf28"
  },
  {
    "name": "Sanjeevani Blood Foundation",
    "address": "Main Road, Amarpur",
    "phone": "201-8749400",
    "blood_required": [
      "A-",
      "B+",
      "O+",
      "B-"
    ],
    "latitude": 15.9524,
    "longitude": 81.5914,
    "is_blood_camp": false,
    "organized_by": "LifeCare Trust",
    "hours_active": "11:00 AM - 4:00 PM",
    "start_date": "2025-07-28",
    "end_date": "2025-07-28",
    "city": "Amarpur",
    "state": "Tripura",
    "id": "a484c3639a04fbb7262453cd1c2ea0ff2dbf5490"
  },
  {
    "name": "Shreeji Blood Centre",
    "address": "Main Road, Amarpur",
    "phone": "865-2721272",
    "blood_required": [
      "O+",
      "A-",
      "AB+"
    ],
    "latitude": 15.709,
    "longitude": 74.9222,
    "is_blood_camp": false,
    "organized_by": "City Hospital",
    "hours_active": "10:00 AM - 4:00 PM",
    "start_date": "2025-07-29",
    "end_date": "2025-07-29",
    "city": "Amarpur",
    "state": "Tripura",
    "id": "d5cf1d420e2c54895755a3282c523dd6a00c4629"
  },
  {
    "name": "Shreeji Blood Centre",
    "address": "Main Road, Amarpur",
    "phone": "975-8506446",
    "blood_required": [
      "A+",
      "B-"
    ],
    "latitude": 21.5209,
    "longitude": 84.5755,
    "is_blood_camp": false,
    "organized_by": "City Hospital",
    "hours_active": "11:00 AM - 4:00 PM",
    "start_date": "2025-07-29",
    "end_date": "2025-07-29",
    "city": "Amarpur",
    "state": "Tripura",
    "id": "7f85a81a4d9403334abb834d7c6aba574cb57dd7"
  },
  {
    "name": "Hope Blood Centre",
    "address": "Main Road, Amarpur",
    "phone": "613-7920149",
    "blood_required": [
      "O+",
      "AB+",
      "AB-",
      "B-"
    ],
    "latitude": 29.1318,
    "longitude": 76.4123,
    "is_blood_camp": false,
    "organized_by": "Indian Red Cross Society",
    "hours_active": "10:00 AM - 6:00 PM",
    "start_date": "2025-07-30",
    "end_date": "2025-07-30",
    "city": "Amarpur",
    "state": "Tripura",
    "id": "c4e7530b72061697832b908a1c22ca5e64636906"
  },
  {
    "name": "Apollo Blood Bank",
    "address": "Main Road, Amarpur",
    "phone": "263-7279546",
    "blood_required": [
      "AB+",
      "B-"
    ],
    "latitude": 18.602,
    "longitude": 74.1784,
    "is_blood_camp": false,
    "organized_by": "City Hospital",
    "hours_active": "11:00 AM - 3:00 PM",
    "start_date": "2025-07-30",
    "end_date": "2025-07-30",
    "city": "Amarpur",
    "state": "Tripura",
    "id": "4b5e40e1ea5855024ebc2f31e6ffb6701b1ef2b0"
  },
  {
    "name": "LifeCare Blood Bank",
    "address": "Main Road, Amarpur",
    "phone": "873-8338406",
    "blood_required": [
      "A-",
      "B-",
      "O-",
      "AB-"
    ],
    "latitude": 29.6872,
    "longitude": 75.5724,
    "is_blood_camp": false,
    "organized_by": "LifeCare Trust",
    "hours_active": "10:00 AM - 4:00 PM",
    "start_date": "2025-07-30",
    "end_date": "2025-07-30",
    "city": "Amarpur",
    "state": "Tripura",
    "id": "f87d15ec1cc168073818ee9c8394ec9b8fba9330"
  },
  {
    "name": "Unity Blood Foundation",
    "address": "Main Road, Amarpur",
    "phone": "345-8978722",
    "blood_required": [
      "AB-",
      "A+"
    ],
    "latitude": 8.0312,
    "longitude": 69.9202,
    "is_blood_camp": false,
    "organized_by": "City Hospital",
    "hours_active": "8:00 AM - 5:00 PM",
    "start_date": "2025-07-31",
    "end_date": "2025-07-31",
    "city": "Amarpur",
    "state": "Tripura",
    "id": "3230887511568316eea82586281ac81526a3e05d"
  },
  {
    "name": "Shreeji Blood Foundation",
    "address": "Main Road, Amarpur",
    "phone": "405-9138227",
    "blood_required": [
      "A+",
      "AB-",
      "O+",
      "O-"
    ],
    "latitude": 12.5445,
    "longitude": 69.5658,
    "is_blood_camp": true,
    "organized_by": "LifeCare Trust",
    "hours_active": "10:00 AM - 5:00 PM",
    "start_date": "2025-07-31",
    "end_date": "2025-07-31",
    "city": "Amarpur",
    "state": "Tripura",
    "id": "3100a78cd7a441340dd8135e1978fb9326f5ccb1"
  },
  {
    "name": "Unity Blood Foundation",
    "address": "Main Road, Amarpur",
    "phone": "767-8044271",
    "blood_required": [
      "B-",
      "A+",
      "O+",
      "B+"
    ],
    "latitude": 19.5913,
    "longitude": 70.0055,
    "is_blood_camp": false,
    "organized_by": "Indian Red Cross Society",
    "hours_active": "9:00 AM - 4:00 PM",
    "start_date": "2025-07-31",
    "end_date": "2025-07-31",
    "city": "Amarpur",
    "state": "Tripura",
    "id": "5661116a357c387294f6fe78d21351266e1bedd6"
  },
  {
    "name": "Medicare Blood Centre",
    "address": "Main Road, Amarpur",
    "phone": "657-1710237",
    "blood_required": [
      "A-",
      "A+",
      "O+"
    ],
    "latitude": 33.8071,
    "longitude": 78.5942,
    "is_blood_camp": false,
    "organized_by": "LifeCare Trust",
    "hours_active": "8:00 AM - 5:00 PM",
    "start_date": "2025-07-31",
    "end_date": "2025-07-31",
    "city": "Amarpur",
    "state": "Tripura",
    "id": "2341df2a3b6558c8b834c22d867e04aa535ce8c8"
  },
  {
    "name": "Apollo Blood Bank",
    "address": "Main Road, Amarpur",
    "phone": "761-5700443",
    "blood_required": [
      "AB+",
      "A+",
      "A-",
      "AB-"
    ],
    "latitude": 13.3541,
    "longitude": 95.1092,
    "is_blood_camp": false,
    "organized_by": "City Hospital",
    "hours_active": "8:00 AM - 5:00 PM",
    "start_date": "2025-08-02",
    "end_date": "2025-08-02",
    "city": "Amarpur",
    "state": "Tripura",
    "id": "23310a937acc0d8f985f3deb7cc44ab4ebb8b362"
  },
  {
    "name": "Red Cross Blood Centre",
    "address": "Main Road, Amarpur",
    "phone": "959-4385501",
    "blood_required": [
      "A+",
      "O-"
    ],
    "latitude": 18.0942,
    "longitude": 68.7287,
    "is_blood_camp": false,
    "organized_by": "Medicare Charitable Trust",
    "hours_active": "9:00 AM - 2:00 PM",
    "start_date": "2025-08-03",
    "end_date": "2025-08-03",
    "city": "Amarpur",
    "state": "Tripura",
    "id": "0b589fceb03c1823375739d5a0b09398444d94d7"
  },
  {
    "name": "LifeCare Blood Foundation",
    "address": "Main Road, Amarpur",
    "phone": "550-1045133",
    "blood_required": [
      "B+",
      "O-",
      "AB-",
      "AB+"
    ],
    "latitude": 14.7323,
    "longitude": 79.7102,
    "is_blood_camp": true,
    "organized_by": "City Hospital",
    "hours_active": "11:00 AM - 6:00 PM",
    "start_date": "2025-08-03",
    "end_date": "2025-08-03",
    "city": "Amarpur",
    "state": "Tripura",
    "id": "fd2ed1864dfb2fef0097d804755b30f63e01226a"
  },
  {
    "name": "Apollo Blood Foundation",
    "address": "Main Road, Amarpur",
    "phone": "154-9099578",
    "blood_required": [
      "A+",
      "A-",
      "AB+"
    ],
    "latitude": 13.6154,
    "longitude": 74.0452,
    "is_blood_camp": false,
    "organized_by": "City Hospital",
    "hours_active": "8:00 AM - 6:00 PM",
    "start_date": "2025-08-03",
    "end_date": "2025-08-03",
    "city": "Amarpur",
    "state": "Tripura",
    "id": "d5709c52b1b2ba9341134bfd73802809a20f1d13"
  },
  {
    "name": "Medicare Blood Services",
    "address": "Main Road, Ambala",
    "phone": "400-2126654",
    "blood_required": [
      "O+",
      "AB-",
      "AB+",
      "B+"
    ],
    "latitude": 24.6001,
    "longitude": 80.3875,
    "is_blood_camp": false,
    "organized_by": "LifeCare Trust",
    "hours_active": "11:00 AM - 2:00 PM",
    "start_date": "2025-07-25",
    "end_date": "2025-07-25",
    "city": "Ambala",
    "state": "Haryana",
    "id": "813056993b20dbebb91a80265ecf1dab9b377617"
  },
  {
    "name": "City Blood Services",
    "address": "Main Road, Ambala",
    "phone": "958-2845995",
    "blood_required": [
      "B-",
      "O-"
    ],
    "latitude": 31.5371,
    "longitude": 94.6262,
    "is_blood_camp": true,
    "organized_by": "City Hospital",
    "hours_active": "11:00 AM - 6:00 PM",
    "start_date": "2025-07-26",
    "end_date": "2025-07-26",
    "city": "Ambala",
    "state": "Haryana",
    "id": "641d0799a19c2800649198d438864ed106217ce3"
  },
  {
    "name": "City Blood Bank",
    "address": "Main Road, Ambala",
    "phone": "593-7018472",
    "blood_required": [
      "O+",
      "AB-",
      "A+",
      "A-"
    ],
    "latitude": 20.6671,
    "longitude": 96.6392,
    "is_blood_camp": true,
    "organized_by": "LifeCare Trust",
    "hours_active": "8:00 AM - 5:00 PM",
    "start_date": "2025-07-27",
    "end_date": "2025-07-27",
    "city": "Ambala",
    "state": "Haryana",
    "id": "0d0e7212ec939ff8ddd7d06afe06de396e10ac47"
  },
  {
    "name": "Unity Blood Bank",
    "address": "Main Road, Ambala",
    "phone": "610-4688077",
    "blood_required": [
      "A-",
      "AB-"
    ],
    "latitude": 29.5803,
    "longitude": 80.5844,
    "is_blood_camp": false,
    "organized_by": "Indian Red Cross Society",
    "hours_active": "8:00 AM - 3:00 PM",
    "start_date": "2025-07-27",
    "end_date": "2025-07-27",
    "city": "Ambala",
    "state": "Haryana",
    "id": "3b3761eed9b08baf46c741f3f5461423a616b8fe"
  },
  {
    "name": "Medicare Blood Services",
    "address": "Main Road, Ambala",
    "phone": "118-5422417",
    "blood_required": [
      "A-",
      "O-"
    ],
    "latitude": 11.9437,
    "longitude": 76.3837,
    "is_blood_camp": false,
    "organized_by": "City Hospital",
    "hours_active": "8:00 AM - 3:00 PM",
    "start_date": "2025-07-28",
    "end_date": "2025-07-28",
    "city": "Ambala",
    "state": "Haryana",
    "id": "45a534bc6a6e07c574c9055489545871e1c32d7b"
  },
  {
    "name": "Unity Blood Services",
    "address": "Main Road, Ambala",
    "phone": "581-4608146",
    "blood_required": [
      "A+",
      "O+",
      "B+"
    ],
    "latitude": 23.7513,
    "longitude": 93.9166,
    "is_blood_camp": true,
    "organized_by": "LifeCare Trust",
    "hours_active": "10:00 AM - 5:00 PM",
    "start_date": "2025-07-29",
    "end_date": "2025-07-29",
    "city": "Ambala",
    "state": "Haryana",
    "id": "e20f6da6a71a589bedd66dcea8160ac0fc27945f"
  },
  {
    "name": "Apollo Blood Services",
    "address": "Main Road, Ambala",
    "phone": "830-7568523",
    "blood_required": [
      "AB-",
      "O-"
    ],
    "latitude": 29.2597,
    "longitude": 70.9879,
    "is_blood_camp": false,
    "organized_by": "Indian Red Cross Society",
    "hours_active": "9:00 AM - 6:00 PM",
    "start_date": "2025-07-29",
    "end_date": "2025-07-29",
    "city": "Ambala",
    "state": "Haryana",
    "id": "99d718c8c9aee9013e65ad20674585854048114a"
  },
  {
    "name": "Vital Blood Bank",
    "address": "Main Road, Ambala",
    "phone": "540-7241686",
    "blood_required": [
      "B+",
      "B-",
      "A+",
      "O+"
    ],
    "latitude": 18.3434,
    "longitude": 76.4554,
    "is_blood_camp": false,
    "organized_by": "LifeCare Trust",
    "hours_active": "10:00 AM - 6:00 PM",
    "start_date": "2025-07-29",
    "end_date": "2025-07-29",
    "city": "Ambala",
    "state": "Haryana",
    "id": "bfe42011937d900c94f08c84176eb20f450a4f17"
  },
  {
    "name": "Apollo Blood Bank",
    "address": "Main Road, Ambala",
    "phone": "962-2738253",
    "blood_required": [
      "A-",
      "O-",
      "A+",
      "O+"
    ],
    "latitude": 8.4734,
    "longitude": 80.3196,
    "is_blood_camp": true,
    "organized_by": "City Hospital",
    "hours_active": "9:00 AM - 4:00 PM",
    "start_date": "2025-07-29",
    "end_date": "2025-07-29",
    "city": "Ambala",
    "state": "Haryana",
    "id": "9fe9fb0ec1ceb087a2c0e0871ad21be9d9541898"
  },
  {
    "name": "Medicare Blood Bank",
    "address": "Main Road, Ambala",
    "phone": "739-9876278",
    "blood_required": [
      "AB+",
      "O-",
      "A-",
      "A+"
    ],
    "latitude": 8.1403,
    "longitude": 93.9574,
    "is_blood_camp": false,
    "organized_by": "Medicare Charitable Trust",
    "hours_active": "10:00 AM - 2:00 PM",
    "start_date": "2025-07-30",
    "end_date": "2025-07-30",
    "city": "Ambala",
    "state": "Haryana",
    "id": "cfae3a48985a33386b307d1147e631e48b06e25d"
  },
  {
    "name": "Vital Blood Foundation",
    "address": "Main Road, Ambala",
    "phone": "847-1454863",
    "blood_required": [
      "A-",
      "AB+"
    ],
    "latitude": 33.1151,
    "longitude": 90.5867,
    "is_blood_camp": false,
    "organized_by": "City Hospital",
    "hours_active": "11:00 AM - 2:00 PM",
    "start_date": "2025-07-30",
    "end_date": "2025-07-30",
    "city": "Ambala",
    "state": "Haryana",
    "id": "b6d85566176e882585ad95918441efc86cf20338"
  },
  {
    "name": "Apollo Blood Foundation",
    "address": "Main Road, Ambala",
    "phone": "595-9957070",
    "blood_required": [
      "O-",
      "A-"
    ],
    "latitude": 34.4676,
    "longitude": 92.4478,
    "is_blood_camp": true,
    "organized_by": "LifeCare Trust",
    "hours_active": "11:00 AM - 5:00 PM",
    "start_date": "2025-07-30",
    "end_date": "2025-07-30",
    "city": "Ambala",
    "state": "Haryana",
    "id": "8a50e471e92f33889ede98ad795ded184c3b7eaf"
  },
  {
    "name": "Unity Blood Services",
    "address": "Main Road, Ambala",
    "phone": "207-1810042",
    "blood_required": [
      "O-",
      "AB-"
    ],
    "latitude": 10.4085,
    "longitude": 95.8894,
    "is_blood_camp": false,
    "organized_by": "City Hospital",
    "hours_active": "10:00 AM - 4:00 PM",
    "start_date": "2025-07-31",
    "end_date": "2025-07-31",
    "city": "Ambala",
    "state": "Haryana",
    "id": "99319e3425ae6185b918a05ace07db1de5cf1eb2"
  },
  {
    "name": "Apollo Blood Bank",
    "address": "Main Road, Ambala",
    "phone": "615-7305684",
    "blood_required": [
      "A-",
      "O-",
      "B-"
    ],
    "latitude": 13.1388,
    "longitude": 70.0477,
    "is_blood_camp": false,
    "organized_by": "LifeCare Trust",
    "hours_active": "11:00 AM - 6:00 PM",
    "start_date": "2025-07-31",
    "end_date": "2025-07-31",
    "city": "Ambala",
    "state": "Haryana",
    "id": "5656d01090aff30a4598c4e3c81c3bf03889988b"
  },
  {
    "name": "City Blood Bank",
    "address": "Main Road, Ambala",
    "phone": "704-5437997",
    "blood_required": [
      "A-",
      "B+",
      "A+"
    ],
    "latitude": 13.6161,
    "longitude": 70.1641,
    "is_blood_camp": true,
    "organized_by": "Medicare Charitable Trust",
    "hours_active": "8:00 AM - 6:00 PM",
    "start_date": "2025-07-31",
    "end_date": "2025-07-31",
    "city": "Ambala",
    "state": "Haryana",
    "id": "6b4544a75b1cf6a1ed79c99a7300a147260d005f"
  },
  {
    "name": "Shreeji Blood Foundation",
    "address": "Main Road, Ambala",
    "phone": "942-6561025",
    "blood_required": [
      "B-",
      "O-",
      "O+",
      "AB+"
    ],
    "latitude": 25.5578,
    "longitude": 79.1205,
    "is_blood_camp": true,
    "organized_by": "Medicare Charitable Trust",
    "hours_active": "8:00 AM - 6:00 PM",
    "start_date": "2025-07-31",
    "end_date": "2025-07-31",
    "city": "Ambala",
    "state": "Haryana",
    "id": "d6723d9be746737d194cd1085e8253bdc7d3eb7e"
  },
  {
    "name": "Shreeji Blood Services",
    "address": "Main Road, Ambala",
    "phone": "962-8964597",
    "blood_required": [
      "A-",
      "B-",
      "AB+",
      "AB-"
    ],
    "latitude": 31.3714,
    "longitude": 90.7113,
    "is_blood_camp": false,
    "organized_by": "Medicare Charitable Trust",
    "hours_active": "11:00 AM - 4:00 PM",
    "start_date": "2025-08-02",
    "end_date": "2025-08-02",
    "city": "Ambala",
    "state": "Haryana",
    "id": "a348edef4e204f79bc4e329e87c2815580b75300"
  },
  {
    "name": "Vital Blood Bank",
    "address": "Main Road, Ambala",
    "phone": "466-8120966",
    "blood_required": [
      "B+",
      "AB-",
      "A-"
    ],
    "latitude": 18.2716,
    "longitude": 92.4632,
    "is_blood_camp": false,
    "organized_by": "LifeCare Trust",
    "hours_active": "8:00 AM - 5:00 PM",
    "start_date": "2025-08-02",
    "end_date": "2025-08-02",
    "city": "Ambala",
    "state": "Haryana",
    "id": "80ffa286aec6006d21a287ed41d8b1e5bf2eecd5"
  },
  {
    "name": "Apollo Blood Bank",
    "address": "Main Road, Ambala",
    "phone": "746-2059568",
    "blood_required": [
      "B+",
      "B-",
      "AB-",
      "O+"
    ],
    "latitude": 14.4875,
    "longitude": 82.9222,
    "is_blood_camp": true,
    "organized_by": "City Hospital",
    "hours_active": "11:00 AM - 2:00 PM",
    "start_date": "2025-08-03",
    "end_date": "2025-08-03",
    "city": "Ambala",
    "state": "Haryana",
    "id": "5f0a9e6d6db2fc9eb62e29aad48b4501fa14a42c"
  },
  {
    "name": "Red Cross Blood Centre",
    "address": "Main Road, Ambala",
    "phone": "769-8137060",
    "blood_required": [
      "A+",
      "B+",
      "O-"
    ],
    "latitude": 17.5444,
    "longitude": 95.4226,
    "is_blood_camp": false,
    "organized_by": "City Hospital",
    "hours_active": "9:00 AM - 6:00 PM",
    "start_date": "2025-08-03",
    "end_date": "2025-08-03",
    "city": "Ambala",
    "state": "Haryana",
    "id": "aefad0705722a9341c7e6381bb5fbb31c4144746"
  },
  {
    "name": "City Blood Centre",
    "address": "Main Road, Amritsar",
    "phone": "983-5025797",
    "blood_required": [
      "AB+",
      "B+",
      "O+",
      "A+"
    ],
    "latitude": 19.2828,
    "longitude": 94.6625,
    "is_blood_camp": true,
    "organized_by": "Indian Red Cross Society",
    "hours_active": "10:00 AM - 2:00 PM",
    "start_date": "2025-07-26",
    "end_date": "2025-07-26",
    "city": "Amritsar",
    "state": "Punjab",
    "id": "6adb8d9d7b124817cdb06a315ab8ed0f79e502be"
  },
  {
    "name": "Apollo Blood Centre",
    "address": "Main Road, Amritsar",
    "phone": "695-2508039",
    "blood_required": [
      "O+",
      "AB+"
    ],
    "latitude": 16.1107,
    "longitude": 74.4379,
    "is_blood_camp": true,
    "organized_by": "Indian Red Cross Society",
    "hours_active": "9:00 AM - 2:00 PM",
    "start_date": "2025-07-26",
    "end_date": "2025-07-26",
    "city": "Amritsar",
    "state": "Punjab",
    "id": "8590d4a3d75bf50f2615bd3f1e6050a555b08a0c"
  },
  {
    "name": "Red Cross Blood Services",
    "address": "Main Road, Amritsar",
    "phone": "676-2059108",
    "blood_required": [
      "O+",
      "O-"
    ],
    "latitude": 17.0757,
    "longitude": 73.3343,
    "is_blood_camp": false,
    "organized_by": "LifeCare Trust",
    "hours_active": "11:00 AM - 6:00 PM",
    "start_date": "2025-07-26",
    "end_date": "2025-07-26",
    "city": "Amritsar",
    "state": "Punjab",
    "id": "e88e50db543aa9396732f730f4142dd28fdd1354"
  },
  {
    "name": "Apollo Blood Services",
    "address": "Main Road, Amritsar",
    "phone": "483-6454004",
    "blood_required": [
      "B+",
      "O+",
      "AB-"
    ],
    "latitude": 24.3343,
    "longitude": 85.8343,
    "is_blood_camp": true,
    "organized_by": "City Hospital",
    "hours_active": "10:00 AM - 2:00 PM",
    "start_date": "2025-07-26",
    "end_date": "2025-07-26",
    "city": "Amritsar",
    "state": "Punjab",
    "id": "2c20cfe75e410b515e3953e6d2c4bd7fbfdebd8c"
  },
  {
    "name": "Hope Blood Bank",
    "address": "Main Road, Amritsar",
    "phone": "549-6534003",
    "blood_required": [
      "O+",
      "B-",
      "A+"
    ],
    "latitude": 12.8089,
    "longitude": 76.8413,
    "is_blood_camp": false,
    "organized_by": "LifeCare Trust",
    "hours_active": "9:00 AM - 2:00 PM",
    "start_date": "2025-07-27",
    "end_date": "2025-07-27",
    "city": "Amritsar",
    "state": "Punjab",
    "id": "61bd5ee0159a080856a2700a217f1c4647926fb1"
  },
  {
    "name": "LifeCare Blood Centre",
    "address": "Main Road, Amritsar",
    "phone": "559-1100028",
    "blood_required": [
      "AB+",
      "A+",
      "B-",
      "O-"
    ],
    "latitude": 9.5569,
    "longitude": 73.9543,
    "is_blood_camp": false,
    "organized_by": "LifeCare Trust",
    "hours_active": "11:00 AM - 2:00 PM",
    "start_date": "2025-07-27",
    "end_date": "2025-07-27",
    "city": "Amritsar",
    "state": "Punjab",
    "id": "a69028fe2cb5eb50a0d08fc3f7f28a055a5e2e69"
  },
  {
    "name": "City Blood Services",
    "address": "Main Road, Amritsar",
    "phone": "370-3158230",
    "blood_required": [
      "B-",
      "O+"
    ],
    "latitude": 22.9967,
    "longitude": 75.0093,
    "is_blood_camp": false,
    "organized_by": "Indian Red Cross Society",
    "hours_active": "9:00 AM - 2:00 PM",
    "start_date": "2025-07-28",
    "end_date": "2025-07-28",
    "city": "Amritsar",
    "state": "Punjab",
    "id": "4ed64eab19fcc3d9e3e906e42ae2173bea4772cc"
  },
  {
    "name": "City Blood Foundation",
    "address": "Main Road, Amritsar",
    "phone": "496-7458445",
    "blood_required": [
      "AB-",
      "A-",
      "B+",
      "O-"
    ],
    "latitude": 34.2722,
    "longitude": 82.4283,
    "is_blood_camp": false,
    "organized_by": "LifeCare Trust",
    "hours_active": "10:00 AM - 4:00 PM",
    "start_date": "2025-07-28",
    "end_date": "2025-07-28",
    "city": "Amritsar",
    "state": "Punjab",
    "id": "c02363c0e56a181ab376d0e12563e6e9a122ca38"
  },
  {
    "name": "Medicare Blood Bank",
    "address": "Main Road, Amritsar",
    "phone": "583-7443535",
    "blood_required": [
      "O+",
      "B+",
      "B-"
    ],
    "latitude": 32.7461,
    "longitude": 95.7241,
    "is_blood_camp": true,
    "organized_by": "City Hospital",
    "hours_active": "8:00 AM - 4:00 PM",
    "start_date": "2025-07-29",
    "end_date": "2025-07-29",
    "city": "Amritsar",
    "state": "Punjab",
    "id": "604341469d0188530dae5427e008b59108d9d618"
  },
  {
    "name": "Vital Blood Bank",
    "address": "Main Road, Amritsar",
    "phone": "480-2570317",
    "blood_required": [
      "AB+",
      "O+",
      "B-"
    ],
    "latitude": 28.2024,
    "longitude": 88.6389,
    "is_blood_camp": true,
    "organized_by": "Medicare Charitable Trust",
    "hours_active": "10:00 AM - 6:00 PM",
    "start_date": "2025-07-29",
    "end_date": "2025-07-29",
    "city": "Amritsar",
    "state": "Punjab",
    "id": "b6c323aaadd34844578a454553083ee1e58fd32d"
  },
  {
    "name": "Unity Blood Bank",
    "address": "Main Road, Amritsar",
    "phone": "671-6923575",
    "blood_required": [
      "B-",
      "A+",
      "O+",
      "O-"
    ],
    "latitude": 15.4418,
    "longitude": 91.6387,
    "is_blood_camp": true,
    "organized_by": "Medicare Charitable Trust",
    "hours_active": "9:00 AM - 4:00 PM",
    "start_date": "2025-07-30",
    "end_date": "2025-07-30",
    "city": "Amritsar",
    "state": "Punjab",
    "id": "e5722aeb1bcfbbe8a2a915715c5c96630fb47640"
  },
  {
    "name": "Apollo Blood Services",
    "address": "Main Road, Amritsar",
    "phone": "680-9241195",
    "blood_required": [
      "A+",
      "O+"
    ],
    "latitude": 19.6713,
    "longitude": 86.0237,
    "is_blood_camp": false,
    "organized_by": "LifeCare Trust",
    "hours_active": "8:00 AM - 4:00 PM",
    "start_date": "2025-07-30",
    "end_date": "2025-07-30",
    "city": "Amritsar",
    "state": "Punjab",
    "id": "e7511e70df95b5a1aaf7b03842731f9f58d3a6e2"
  },
  {
    "name": "LifeCare Blood Centre",
    "address": "Main Road, Amritsar",
    "phone": "698-7686013",
    "blood_required": [
      "AB+",
      "O-",
      "AB-"
    ],
    "latitude": 14.3029,
    "longitude": 95.2185,
    "is_blood_camp": true,
    "organized_by": "Medicare Charitable Trust",
    "hours_active": "10:00 AM - 3:00 PM",
    "start_date": "2025-07-30",
    "end_date": "2025-07-30",
    "city": "Amritsar",
    "state": "Punjab",
    "id": "fb518b5fba4c67aff6fd6d688cf6f9c8b42bae3d"
  },
  {
    "name": "Red Cross Blood Services",
    "address": "Main Road, Amritsar",
    "phone": "862-8642061",
    "blood_required": [
      "O-",
      "B+",
      "AB-"
    ],
    "latitude": 13.9496,
    "longitude": 89.3645,
    "is_blood_camp": true,
    "organized_by": "Indian Red Cross Society",
    "hours_active": "11:00 AM - 2:00 PM",
    "start_date": "2025-07-30",
    "end_date": "2025-07-30",
    "city": "Amritsar",
    "state": "Punjab",
    "id": "1b042d1e947dce95cdc30d31953b21aa5afbc6c1"
  },
  {
    "name": "Vital Blood Services",
    "address": "Main Road, Amritsar",
    "phone": "904-9426517",
    "blood_required": [
      "O-",
      "B+"
    ],
    "latitude": 28.1922,
    "longitude": 82.9488,
    "is_blood_camp": true,
    "organized_by": "City Hospital",
    "hours_active": "8:00 AM - 2:00 PM",
    "start_date": "2025-07-31",
    "end_date": "2025-07-31",
    "city": "Amritsar",
    "state": "Punjab",
    "id": "9502ed7f311f08fdb8cb390eacf0cd451a8d3a9d"
  },
  {
    "name": "Sanjeevani Blood Foundation",
    "address": "Main Road, Amritsar",
    "phone": "874-8297570",
    "blood_required": [
      "A-",
      "AB-",
      "B+",
      "O-"
    ],
    "latitude": 31.6603,
    "longitude": 70.9737,
    "is_blood_camp": true,
    "organized_by": "City Hospital",
    "hours_active": "9:00 AM - 4:00 PM",
    "start_date": "2025-07-31",
    "end_date": "2025-07-31",
    "city": "Amritsar",
    "state": "Punjab",
    "id": "2c69648690f80555246debba6c11adf1c28473a8"
  },
  {
    "name": "Vital Blood Services",
    "address": "Main Road, Amritsar",
    "phone": "905-1175841",
    "blood_required": [
      "A-",
      "O+",
      "A+",
      "B-"
    ],
    "latitude": 13.0553,
    "longitude": 78.8392,
    "is_blood_camp": false,
    "organized_by": "Indian Red Cross Society",
    "hours_active": "9:00 AM - 2:00 PM",
    "start_date": "2025-08-01",
    "end_date": "2025-08-01",
    "city": "Amritsar",
    "state": "Punjab",
    "id": "77c893aaec9dfa5def2bc440de4239112f48a8b4"
  },
  {
    "name": "Sanjeevani Blood Bank",
    "address": "Main Road, Amritsar",
    "phone": "772-4021715",
    "blood_required": [
      "B+",
      "A+",
      "O+",
      "O-"
    ],
    "latitude": 14.4236,
    "longitude": 96.345,
    "is_blood_camp": true,
    "organized_by": "City Hospital",
    "hours_active": "8:00 AM - 5:00 PM",
    "start_date": "2025-08-02",
    "end_date": "2025-08-02",
    "city": "Amritsar",
    "state": "Punjab",
    "id": "0b5758c265fdf20062380427fd4b32bedff3c2f5"
  },
  {
    "name": "Apollo Blood Services",
    "address": "Main Road, Amritsar",
    "phone": "597-2721595",
    "blood_required": [
      "O+",
      "B-"
    ],
    "latitude": 13.5768,
    "longitude": 79.9216,
    "is_blood_camp": false,
    "organized_by": "Medicare Charitable Trust",
    "hours_active": "11:00 AM - 3:00 PM",
    "start_date": "2025-08-03",
    "end_date": "2025-08-03",
    "city": "Amritsar",
    "state": "Punjab",
    "id": "4f8666551c353f971a0b68a1a42594d3616bbde3"
  },
  {
    "name": "City Blood Centre",
    "address": "Main Road, Amritsar",
    "phone": "259-8422032",
    "blood_required": [
      "A+",
      "B-"
    ],
    "latitude": 13.5481,
    "longitude": 93.7633,
    "is_blood_camp": false,
    "organized_by": "Medicare Charitable Trust",
    "hours_active": "10:00 AM - 2:00 PM",
    "start_date": "2025-08-03",
    "end_date": "2025-08-03",
    "city": "Amritsar",
    "state": "Punjab",
    "id": "4bfc81488e4ac48ff7f1834e79d3591a890cbea9"
  },
  {
    "name": "Medicare Blood Foundation",
    "address": "Main Road, Amritsar",
    "phone": "617-7750459",
    "blood_required": [
      "B-",
      "O+",
      "A-",
      "O-"
    ],
    "latitude": 31.6991,
    "longitude": 87.2578,
    "is_blood_camp": true,
    "organized_by": "Indian Red Cross Society",
    "hours_active": "9:00 AM - 3:00 PM",
    "start_date": "2025-08-03",
    "end_date": "2025-08-03",
    "city": "Amritsar",
    "state": "Punjab",
    "id": "68705469551894706d64a4eddf0644dd4bb91572"
  },
  {
    "name": "Sanjeevani Blood Services",
    "address": "Main Road, Amritsar",
    "phone": "965-3156970",
    "blood_required": [
      "AB-",
      "B+",
      "O+"
    ],
    "latitude": 24.9939,
    "longitude": 75.5292,
    "is_blood_camp": true,
    "organized_by": "City Hospital",
    "hours_active": "8:00 AM - 3:00 PM",
    "start_date": "2025-08-03",
    "end_date": "2025-08-03",
    "city": "Amritsar",
    "state": "Punjab",
    "id": "e9d7851712fe402432ab8dd8fb6bf2633b7269d8"
  },
  {
    "name": "Hope Blood Centre",
    "address": "Main Road, Asansol",
    "phone": "499-2947947",
    "blood_required": [
      "O+",
      "O-",
      "AB+"
    ],
    "latitude": 16.4266,
    "longitude": 73.045,
    "is_blood_camp": true,
    "organized_by": "LifeCare Trust",
    "hours_active": "11:00 AM - 4:00 PM",
    "start_date": "2025-07-25",
    "end_date": "2025-07-25",
    "city": "Asansol",
    "state": "West Bengal",
    "id": "874160cc71bb8e201588522474932be84b0fa32e"
  },
  {
    "name": "Hope Blood Centre",
    "address": "Main Road, Asansol",
    "phone": "311-5590684",
    "blood_required": [
      "B-",
      "O+",
      "A+",
      "AB+"
    ],
    "latitude": 14.8923,
    "longitude": 93.8384,
    "is_blood_camp": false,
    "organized_by": "City Hospital",
    "hours_active": "9:00 AM - 6:00 PM",
    "start_date": "2025-07-26",
    "end_date": "2025-07-26",
    "city": "Asansol",
    "state": "West Bengal",
    "id": "aa6a6422a86a3bdf68f765b5cebb663bf6cfc41f"
  },
  {
    "name": "Apollo Blood Foundation",
    "address": "Main Road, Asansol",
    "phone": "564-8686617",
    "blood_required": [
      "AB-",
      "AB+",
      "A+",
      "A-"
    ],
    "latitude": 9.5574,
    "longitude": 82.7737,
    "is_blood_camp": true,
    "organized_by": "Indian Red Cross Society",
    "hours_active": "8:00 AM - 5:00 PM",
    "start_date": "2025-07-27",
    "end_date": "2025-07-27",
    "city": "Asansol",
    "state": "West Bengal",
    "id": "c4200374da776c1710493f179e1d4bae64f92d3b"
  },
  {
    "name": "Vital Blood Services",
    "address": "Main Road, Asansol",
    "phone": "674-6271291",
    "blood_required": [
      "B+",
      "A+",
      "O-",
      "O+"
    ],
    "latitude": 30.1019,
    "longitude": 79.8389,
    "is_blood_camp": false,
    "organized_by": "City Hospital",
    "hours_active": "8:00 AM - 3:00 PM",
    "start_date": "2025-07-27",
    "end_date": "2025-07-27",
    "city": "Asansol",
    "state": "West Bengal",
    "id": "5bd6ea58941ddccbeadb3aaff0754d3c9464561b"
  },
  {
    "name": "City Blood Services",
    "address": "Main Road, Asansol",
    "phone": "381-4299371",
    "blood_required": [
      "AB+",
      "A+",
      "AB-",
      "O-"
    ],
    "latitude": 10.3795,
    "longitude": 72.6088,
    "is_blood_camp": true,
    "organized_by": "City Hospital",
    "hours_active": "11:00 AM - 2:00 PM",
    "start_date": "2025-07-28",
    "end_date": "2025-07-28",
    "city": "Asansol",
    "state": "West Bengal",
    "id": "fed9b15118382f34830d16957d998dcf16b668b1"
  },
  {
    "name": "Sanjeevani Blood Centre",
    "address": "Main Road, Asansol",
    "phone": "590-1823711",
    "blood_required": [
      "O-",
      "AB-",
      "B-"
    ],
    "latitude": 34.7817,
    "longitude": 84.0568,
    "is_blood_camp": true,
    "organized_by": "City Hospital",
    "hours_active": "10:00 AM - 4:00 PM",
    "start_date": "2025-07-28",
    "end_date": "2025-07-28",
    "city": "Asansol",
    "state": "West Bengal",
    "id": "5511ce3208ed22f7be8d492343e26b06a97a860e"
  },
  {
    "name": "Shreeji Blood Foundation",
    "address": "Main Road, Asansol",
    "phone": "521-8862767",
    "blood_required": [
      "O+",
      "A-",
      "AB+",
      "A+"
    ],
    "latitude": 25.3294,
    "longitude": 95.9983,
    "is_blood_camp": true,
    "organized_by": "LifeCare Trust",
    "hours_active": "10:00 AM - 3:00 PM",
    "start_date": "2025-07-29",
    "end_date": "2025-07-29",
    "city": "Asansol",
    "state": "West Bengal",
    "id": "8837ca30aa977dd47111fdc87ab71b72ab9032bc"
  },
  {
    "name": "Vital Blood Bank",
    "address": "Main Road, Asansol",
    "phone": "672-8955621",
    "blood_required": [
      "AB-",
      "A-",
      "A+"
    ],
    "latitude": 32.5154,
    "longitude": 83.4243,
    "is_blood_camp": false,
    "organized_by": "City Hospital",
    "hours_active": "8:00 AM - 3:00 PM",
    "start_date": "2025-07-31",
    "end_date": "2025-07-31",
    "city": "Asansol",
    "state": "West Bengal",
    "id": "c2972e6f3893b7c4402464be05065cc9cf4e7018"
  },
  {
    "name": "Vital Blood Services",
    "address": "Main Road, Asansol",
    "phone": "354-7785053",
    "blood_required": [
      "O-",
      "B+",
      "AB-"
    ],
    "latitude": 25.2836,
    "longitude": 91.9362,
    "is_blood_camp": false,
    "organized_by": "City Hospital",
    "hours_active": "8:00 AM - 6:00 PM",
    "start_date": "2025-07-31",
    "end_date": "2025-07-31",
    "city": "Asansol",
    "state": "West Bengal",
    "id": "682a73eb4cd4f664865b6bd9c824ed84283edfcd"
  },
  {
    "name": "Apollo Blood Foundation",
    "address": "Main Road, Asansol",
    "phone": "127-1046904",
    "blood_required": [
      "O+",
      "AB+",
      "A+"
    ],
    "latitude": 17.7334,
    "longitude": 96.4378,
    "is_blood_camp": false,
    "organized_by": "Medicare Charitable Trust",
    "hours_active": "9:00 AM - 2:00 PM",
    "start_date": "2025-07-31",
    "end_date": "2025-07-31",
    "city": "Asansol",
    "state": "West Bengal",
    "id": "20c35af3cb975156f6c4869950d6b90147702f59"
  },
  {
    "name": "LifeCare Blood Centre",
    "address": "Main Road, Asansol",
    "phone": "337-5297381",
    "blood_required": [
      "B+",
      "O+"
    ],
    "latitude": 24.1449,
    "longitude": 83.0575,
    "is_blood_camp": true,
    "organized_by": "LifeCare Trust",
    "hours_active": "9:00 AM - 4:00 PM",
    "start_date": "2025-08-01",
    "end_date": "2025-08-01",
    "city": "Asansol",
    "state": "West Bengal",
    "id": "eb87c755ca585bff4bebc0422b360d33a371e4fa"
  },
  {
    "name": "Hope Blood Bank",
    "address": "Main Road, Asansol",
    "phone": "462-9725394",
    "blood_required": [
      "A+",
      "AB+",
      "AB-"
    ],
    "latitude": 16.2508,
    "longitude": 81.4316,
    "is_blood_camp": true,
    "organized_by": "LifeCare Trust",
    "hours_active": "9:00 AM - 2:00 PM",
    "start_date": "2025-08-03",
    "end_date": "2025-08-03",
    "city": "Asansol",
    "state": "West Bengal",
    "id": "91a0dfdc5d375dc66caa2d0568c755ad9354d6f6"
  },
  {
    "name": "City Blood Foundation",
    "address": "Main Road, Asansol",
    "phone": "462-7894113",
    "blood_required": [
      "B+",
      "AB+"
    ],
    "latitude": 15.0447,
    "longitude": 91.2495,
    "is_blood_camp": true,
    "organized_by": "Indian Red Cross Society",
    "hours_active": "9:00 AM - 5:00 PM",
    "start_date": "2025-08-03",
    "end_date": "2025-08-03",
    "city": "Asansol",
    "state": "West Bengal",
    "id": "0a54c1e11a5adc66bee6a0ca3b3a93cef6ab33c0"
  },
  {
    "name": "Unity Blood Centre",
    "address": "Main Road, Asansol",
    "phone": "335-6011086",
    "blood_required": [
      "AB+",
      "B-",
      "AB-",
      "A-"
    ],
    "latitude": 27.1372,
    "longitude": 78.0989,
    "is_blood_camp": false,
    "organized_by": "Medicare Charitable Trust",
    "hours_active": "8:00 AM - 5:00 PM",
    "start_date": "2025-08-03",
    "end_date": "2025-08-03",
    "city": "Asansol",
    "state": "West Bengal",
    "id": "e6541d873e4fff73d6467091de769495b6e595ca"
  },
  {
    "name": "Unity Blood Centre",
    "address": "Main Road, Asansol",
    "phone": "891-2450628",
    "blood_required": [
      "A+",
      "B-"
    ],
    "latitude": 26.5655,
    "longitude": 85.0435,
    "is_blood_camp": true,
    "organized_by": "Medicare Charitable Trust",
    "hours_active": "8:00 AM - 6:00 PM",
    "start_date": "2025-08-03",
    "end_date": "2025-08-03",
    "city": "Asansol",
    "state": "West Bengal",
    "id": "848996cac8bd1a8e543d358e994516ca8746b15e"
  },
  {
    "name": "Vital Blood Services",
    "address": "Main Road, Aurangabad",
    "phone": "775-8669814",
    "blood_required": [
      "A+",
      "O+"
    ],
    "latitude": 24.6728,
    "longitude": 75.3245,
    "is_blood_camp": true,
    "organized_by": "LifeCare Trust",
    "hours_active": "9:00 AM - 4:00 PM",
    "start_date": "2025-07-25",
    "end_date": "2025-07-25",
    "city": "Aurangabad",
    "state": "Maharashtra",
    "id": "4a8d9ebefd8d89c63fd7cffbc0d9efd902336b1d"
  },
  {
    "name": "Hope Blood Services",
    "address": "Main Road, Aurangabad",
    "phone": "488-7257252",
    "blood_required": [
      "AB+",
      "O-",
      "B-",
      "A+"
    ],
    "latitude": 27.0828,
    "longitude": 71.9319,
    "is_blood_camp": true,
    "organized_by": "LifeCare Trust",
    "hours_active": "10:00 AM - 5:00 PM",
    "start_date": "2025-07-25",
    "end_date": "2025-07-25",
    "city": "Aurangabad",
    "state": "Maharashtra",
    "id": "4b089a2e5043c25ffcb39783fc4068f569774463"
  },
  {
    "name": "Apollo Blood Centre",
    "address": "Main Road, Aurangabad",
    "phone": "576-4850646",
    "blood_required": [
      "O-",
      "B+"
    ],
    "latitude": 15.9996,
    "longitude": 83.5126,
    "is_blood_camp": true,
    "organized_by": "City Hospital",
    "hours_active": "8:00 AM - 6:00 PM",
    "start_date": "2025-07-25",
    "end_date": "2025-07-25",
    "city": "Aurangabad",
    "state": "Maharashtra",
    "id": "785a22e209a5ade728569ed38439000d657b348d"
  },
  {
    "name": "City Blood Foundation",
    "address": "Main Road, Aurangabad",
    "phone": "346-2948988",
    "blood_required": [
      "B+",
      "AB-",
      "B-"
    ],
    "latitude": 11.6141,
    "longitude": 76.3362,
    "is_blood_camp": true,
    "organized_by": "Medicare Charitable Trust",
    "hours_active": "11:00 AM - 4:00 PM",
    "start_date": "2025-07-26",
    "end_date": "2025-07-26",
    "city": "Aurangabad",
    "state": "Maharashtra",
    "id": "9ad8b46d350e3a805092f5799d9eda684a8d5af1"
  },
  {
    "name": "City Blood Foundation",
    "address": "Main Road, Aurangabad",
    "phone": "419-8614698",
    "blood_required": [
      "O+",
      "O-",
      "A+",
      "AB+"
    ],
    "latitude": 29.7812,
    "longitude": 70.5902,
    "is_blood_camp": true,
    "organized_by": "LifeCare Trust",
    "hours_active": "10:00 AM - 5:00 PM",
    "start_date": "2025-07-27",
    "end_date": "2025-07-27",
    "city": "Aurangabad",
    "state": "Maharashtra",
    "id": "07e151b056b72d00485667ac7af795fb13a69854"
  },
  {
    "name": "LifeCare Blood Bank",
    "address": "Main Road, Aurangabad",
    "phone": "138-9987379",
    "blood_required": [
      "AB-",
      "AB+",
      "A-"
    ],
    "latitude": 32.1015,
    "longitude": 69.7371,
    "is_blood_camp": false,
    "organized_by": "Medicare Charitable Trust",
    "hours_active": "9:00 AM - 6:00 PM",
    "start_date": "2025-07-27",
    "end_date": "2025-07-27",
    "city": "Aurangabad",
    "state": "Maharashtra",
    "id": "51dbeeef6139b75a0830311d48ed233b177615cb"
  },
  {
    "name": "Sanjeevani Blood Services",
    "address": "Main Road, Aurangabad",
    "phone": "800-3234983",
    "blood_required": [
      "O-",
      "AB+"
    ],
    "latitude": 23.2413,
    "longitude": 68.3859,
    "is_blood_camp": true,
    "organized_by": "City Hospital",
    "hours_active": "8:00 AM - 5:00 PM",
    "start_date": "2025-07-27",
    "end_date": "2025-07-27",
    "city": "Aurangabad",
    "state": "Maharashtra",
    "id": "90424a14e756f190301dba77ea2970e9e38e1712"
  },
  {
    "name": "Medicare Blood Centre",
    "address": "Main Road, Aurangabad",
    "phone": "566-8278351",
    "blood_required": [
      "A+",
      "AB-"
    ],
    "latitude": 26.9524,
    "longitude": 81.6989,
    "is_blood_camp": true,
    "organized_by": "Indian Red Cross Society",
    "hours_active": "10:00 AM - 6:00 PM",
    "start_date": "2025-07-27",
    "end_date": "2025-07-27",
    "city": "Aurangabad",
    "state": "Maharashtra",
    "id": "f1ac33d02048cf3ddfe3cd5f63c49830b666db7a"
  },
  {
    "name": "Unity Blood Services",
    "address": "Main Road, Aurangabad",
    "phone": "675-9983746",
    "blood_required": [
      "A+",
      "B-",
      "O+"
    ],
    "latitude": 31.644,
    "longitude": 79.6741,
    "is_blood_camp": true,
    "organized_by": "Indian Red Cross Society",
    "hours_active": "11:00 AM - 6:00 PM",
    "start_date": "2025-07-29",
    "end_date": "2025-07-29",
    "city": "Aurangabad",
    "state": "Maharashtra",
    "id": "79dea14fcb4dea9a4842311863178491eca220ea"
  },
  {
    "name": "Medicare Blood Centre",
    "address": "Main Road, Aurangabad",
    "phone": "738-5524172",
    "blood_required": [
      "A+",
      "AB-"
    ],
    "latitude": 13.4537,
    "longitude": 86.0264,
    "is_blood_camp": false,
    "organized_by": "Medicare Charitable Trust",
    "hours_active": "11:00 AM - 6:00 PM",
    "start_date": "2025-07-29",
    "end_date": "2025-07-29",
    "city": "Aurangabad",
    "state": "Maharashtra",
    "id": "31d9bfaca668376183fa285e28e20ad9d5b95425"
  },
  {
    "name": "Shreeji Blood Centre",
    "address": "Main Road, Aurangabad",
    "phone": "295-1271328",
    "blood_required": [
      "B+",
      "A-",
      "AB+",
      "A+"
    ],
    "latitude": 9.9936,
    "longitude": 77.3705,
    "is_blood_camp": false,
    "organized_by": "Indian Red Cross Society",
    "hours_active": "8:00 AM - 2:00 PM",
    "start_date": "2025-07-30",
    "end_date": "2025-07-30",
    "city": "Aurangabad",
    "state": "Maharashtra",
    "id": "064941e455926c760c6620d2f25dfcc0cb547237"
  },